{"type":"FeatureCollection","features":[{"type":"Feature","geometry":{"type":"Point","coordinates":[106.80141,-6.22748]},"properties":{"title":"Bundaran Senayan","marker-color":"#5786CA","koridor":"2Ar","halteId":"103"}},{"type":"Feature","geometry":{"type":"Point","coordinates":[106.80582,-6.22418]},"properties":{"title":"Gelora Bung Karno","marker-color":"#5786CA","koridor":"2Ar","halteId":"104"}},{"type":"Feature","geometry":{"type":"Point","coordinates":[106.80967,-6.22151]},"properties":{"title":"Polda Metro Jaya","marker-color":"#5786CA","koridor":"2Ar","halteId":"105"}},{"type":"Feature","geometry":{"type":"Point","coordinates":[106.81531,-6.217069]},"properties":{"title":"Bendungan Hilir","marker-color":"#5786CA","koridor":"2Ar","halteId":"106"}},{"type":"Feature","geometry":{"type":"Point","coordinates":[106.818265,-6.214742]},"properties":{"title":"Karet","marker-color":"#5786CA","koridor":"2Ar","halteId":"107"}},{"type":"Feature","geometry":{"type":"Point","coordinates":[106.821215,-6.210182]},"properties":{"title":"Setiabudi","marker-color":"#5786CA","koridor":"2Ar","halteId":"108"}},{"type":"Feature","geometry":{"type":"Point","coordinates":[106.822255,-6.205641]},"properties":{"title":"Dukuh Atas 1","marker-color":"#5786CA","koridor":"2Ar","halteId":"109"}},{"type":"Feature","geometry":{"type":"Point","coordinates":[106.82312,-6.19864]},"properties":{"title":"Tosari ICBC","marker-color":"#5786CA","koridor":"2Ar","halteId":"110"}},{"type":"Feature","geometry":{"type":"Point","coordinates":[106.823029,-6.19361]},"properties":{"title":"Bundaran HI","marker-color":"#5786CA","koridor":"2Ar","halteId":"111"}},{"type":"Feature","geometry":{"type":"Point","coordinates":[106.822993,-6.18797]},"properties":{"title":"Sarinah","marker-color":"#5786CA","koridor":"2Ar","halteId":"112"}},{"type":"Feature","geometry":{"type":"Point","coordinates":[106.82296,-6.1827]},"properties":{"title":"Bank Indonesia","marker-color":"#5786CA","koridor":"2Ar","halteId":"113"}},{"type":"Feature","geometry":{"type":"Point","coordinates":[106.82766,-6.180228]},"properties":{"title":"Balaikota","marker-color":"#5786CA","koridor":"2Ar","halteId":"222"}},{"type":"Feature","geometry":{"type":"Point","coordinates":[106.831086,-6.178879]},"properties":{"title":"Gambir 2","marker-color":"#5786CA","koridor":"2Ar","halteId":"223"}},{"type":"Feature","geometry":{"type":"Point","coordinates":[106.838528,-6.181127]},"properties":{"title":"Kwitang","marker-color":"#5786CA","koridor":"2Ar","halteId":"224"}},{"type":"Feature","geometry":{"type":"Point","coordinates":[106.842622,-6.178122]},"properties":{"title":"Senen","marker-color":"#5786CA","koridor":"2Ar","halteId":"212"}},{"type":"Feature","geometry":{"type":"Point","coordinates":[106.854751,-6.174403]},"properties":{"title":"Galur","marker-color":"#5786CA","koridor":"2Ar","halteId":"211"}},{"type":"Feature","geometry":{"type":"Point","coordinates":[106.858038,-6.173912]},"properties":{"title":"Rawa Selatan","marker-color":"#5786CA","koridor":"2Ar","halteId":"210"}},{"type":"Feature","geometry":{"type":"Point","coordinates":[106.862512,-6.172279]},"properties":{"title":"Pasar Cempaka Putih","marker-color":"#5786CA","koridor":"2Ar","halteId":"209"}},{"type":"Feature","geometry":{"type":"Point","coordinates":[106.866614,-6.170374]},"properties":{"title":"Cempaka Tengah","marker-color":"#5786CA","koridor":"2Ar","halteId":"208"}},{"type":"Feature","geometry":{"type":"Point","coordinates":[106.870417,-6.168593]},"properties":{"title":"RS Islam","marker-color":"#5786CA","koridor":"2Ar","halteId":"207"}},{"type":"Feature","geometry":{"type":"Point","coordinates":[106.876055,-6.166521]},"properties":{"title":"Cempaka Timur","marker-color":"#5786CA","koridor":"2Ar","halteId":"206"}},{"type":"Feature","geometry":{"type":"Point","coordinates":[106.882592,-6.167988]},"properties":{"title":"Pedongkelan","marker-color":"#5786CA","koridor":"2Ar","halteId":"205"}},{"type":"Feature","geometry":{"type":"Point","coordinates":[106.888752,-6.171762]},"properties":{"title":"ASMI","marker-color":"#5786CA","koridor":"2Ar","halteId":"204"}},{"type":"Feature","geometry":{"type":"Point","coordinates":[106.892724,-6.17472]},"properties":{"title":"Pulo Mas","marker-color":"#5786CA","koridor":"2Ar","halteId":"203"}},{"type":"Feature","geometry":{"type":"Point","coordinates":[106.898504,-6.178141]},"properties":{"title":"Bermis","marker-color":"#5786CA","koridor":"2Ar","halteId":"202"}},{"type":"Feature","geometry":{"type":"Point","coordinates":[106.90902,-6.183302]},"properties":{"title":"Pulo Gadung","marker-color":"#5786CA","koridor":"2Ar","halteId":"201"}}]}