{"type":"FeatureCollection","features":[{"type":"Feature","geometry":{"type":"Point","coordinates":[106.705935,-6.154633]},"properties":{"title":"Kalideres","marker-color":"#4F008B","koridor":"3A","halteId":"301"}},{"type":"Feature","geometry":{"type":"Point","coordinates":[106.71525,-6.15477]},"properties":{"title":"Pesakih","marker-color":"#4F008B","koridor":"3A","halteId":"302"}},{"type":"Feature","geometry":{"type":"Point","coordinates":[106.71917,-6.15303]},"properties":{"title":"Sumur Bor","marker-color":"#4F008B","koridor":"3A","halteId":"303"}},{"type":"Feature","geometry":{"type":"Point","coordinates":[106.726339,-6.153876]},"properties":{"title":"Rawa Buaya","marker-color":"#4F008B","koridor":"3A","halteId":"304"}},{"type":"Feature","geometry":{"type":"Point","coordinates":[106.73053,-6.15485]},"properties":{"title":"Jembatan Bar","marker-color":"#4F008B","koridor":"3A","halteId":"305"}},{"type":"Feature","geometry":{"type":"Point","coordinates":[106.738035,-6.154578]},"properties":{"title":"Dispenda Samsat Barat","marker-color":"#4F008B","koridor":"3A","halteId":"306"}},{"type":"Feature","geometry":{"type":"Point","coordinates":[106.74926,-6.15547]},"properties":{"title":"Jembatan Gantung","marker-color":"#4F008B","koridor":"3A","halteId":"307"}},{"type":"Feature","geometry":{"type":"Point","coordinates":[106.7579,-6.15717]},"properties":{"title":"Taman Kota","marker-color":"#4F008B","koridor":"3A","halteId":"308"}},{"type":"Feature","geometry":{"type":"Point","coordinates":[106.77538,-6.16346]},"properties":{"title":"Indosiar","marker-color":"#4F008B","koridor":"3A","halteId":"309"}},{"type":"Feature","geometry":{"type":"Point","coordinates":[106.786804,-6.166603]},"properties":{"title":"Jelambar","marker-color":"#4F008B","koridor":"3A","halteId":"310"}},{"type":"Feature","geometry":{"type":"Point","coordinates":[106.789709,-6.16681]},"properties":{"title":"Grogol 1","marker-color":"#4F008B","koridor":"3A","halteId":"311"}},{"type":"Feature","geometry":{"type":"Point","coordinates":[106.796938,-6.166256]},"properties":{"title":"RS Sumber Waras","marker-color":"#4F008B","koridor":"3A","halteId":"312"}},{"type":"Feature","geometry":{"type":"Point","coordinates":[106.82043,-6.16582]},"properties":{"title":"Harmoni","marker-color":"#4F008B","koridor":"3A","halteId":"313"}},{"type":"Feature","geometry":{"type":"Point","coordinates":[106.822795,-6.175533]},"properties":{"title":"Monas","marker-color":"#4F008B","koridor":"3A","halteId":"114"}},{"type":"Feature","geometry":{"type":"Point","coordinates":[106.82296,-6.1827]},"properties":{"title":"Bank Indonesia","marker-color":"#4F008B","koridor":"3A","halteId":"113"}},{"type":"Feature","geometry":{"type":"Point","coordinates":[106.822993,-6.18797]},"properties":{"title":"Sarinah","marker-color":"#4F008B","koridor":"3A","halteId":"112"}},{"type":"Feature","geometry":{"type":"Point","coordinates":[106.823029,-6.19361]},"properties":{"title":"Bundaran HI","marker-color":"#4F008B","koridor":"3A","halteId":"111"}},{"type":"Feature","geometry":{"type":"Point","coordinates":[106.82312,-6.19864]},"properties":{"title":"Tosari ICBC","marker-color":"#4F008B","koridor":"3A","halteId":"110"}},{"type":"Feature","geometry":{"type":"Point","coordinates":[106.822255,-6.205641]},"properties":{"title":"Dukuh Atas 1","marker-color":"#4F008B","koridor":"3A","halteId":"109"}},{"type":"Feature","geometry":{"type":"Point","coordinates":[106.821215,-6.210182]},"properties":{"title":"Setiabudi","marker-color":"#4F008B","koridor":"3A","halteId":"108"}},{"type":"Feature","geometry":{"type":"Point","coordinates":[106.818265,-6.214742]},"properties":{"title":"Karet","marker-color":"#4F008B","koridor":"3A","halteId":"107"}},{"type":"Feature","geometry":{"type":"Point","coordinates":[106.81531,-6.217069]},"properties":{"title":"Bendungan Hilir","marker-color":"#4F008B","koridor":"3A","halteId":"106"}},{"type":"Feature","geometry":{"type":"Point","coordinates":[106.80967,-6.22151]},"properties":{"title":"Polda Metro Jaya","marker-color":"#4F008B","koridor":"3A","halteId":"105"}},{"type":"Feature","geometry":{"type":"Point","coordinates":[106.80582,-6.22418]},"properties":{"title":"Gelora Bung Karno","marker-color":"#4F008B","koridor":"3A","halteId":"104"}},{"type":"Feature","geometry":{"type":"Point","coordinates":[106.80141,-6.22748]},"properties":{"title":"Bundaran Senayan","marker-color":"#4F008B","koridor":"3A","halteId":"103"}}]}