{"type":"FeatureCollection","features":[{"type":"Feature","geometry":{"type":"Point","coordinates":[106.838177,-6.162464]},"properties":{"title":"Pasar Bar","marker-color":"#F9C300","koridor":"3r","halteId":"316"}},{"type":"Feature","geometry":{"type":"Point","coordinates":[106.830706,-6.168011]},"properties":{"title":"Juanda","marker-color":"#F9C300","koridor":"3r","halteId":"315"}},{"type":"Feature","geometry":{"type":"Point","coordinates":[106.828138,-6.167661]},"properties":{"title":"Pecenongan","marker-color":"#F9C300","koridor":"3r","halteId":"314"}},{"type":"Feature","geometry":{"type":"Point","coordinates":[106.82043,-6.16582]},"properties":{"title":"Harmoni","marker-color":"#F9C300","koridor":"3r","halteId":"313"}},{"type":"Feature","geometry":{"type":"Point","coordinates":[106.796938,-6.166256]},"properties":{"title":"RS Sumber Waras","marker-color":"#F9C300","koridor":"3r","halteId":"312"}},{"type":"Feature","geometry":{"type":"Point","coordinates":[106.789709,-6.16681]},"properties":{"title":"Grogol 1","marker-color":"#F9C300","koridor":"3r","halteId":"311"}},{"type":"Feature","geometry":{"type":"Point","coordinates":[106.786804,-6.166603]},"properties":{"title":"Jelambar","marker-color":"#F9C300","koridor":"3r","halteId":"310"}},{"type":"Feature","geometry":{"type":"Point","coordinates":[106.77538,-6.16346]},"properties":{"title":"Indosiar","marker-color":"#F9C300","koridor":"3r","halteId":"309"}},{"type":"Feature","geometry":{"type":"Point","coordinates":[106.7579,-6.15717]},"properties":{"title":"Taman Kota","marker-color":"#F9C300","koridor":"3r","halteId":"308"}},{"type":"Feature","geometry":{"type":"Point","coordinates":[106.74926,-6.15547]},"properties":{"title":"Jembatan Gantung","marker-color":"#F9C300","koridor":"3r","halteId":"307"}},{"type":"Feature","geometry":{"type":"Point","coordinates":[106.738035,-6.154578]},"properties":{"title":"Dispenda Samsat Barat","marker-color":"#F9C300","koridor":"3r","halteId":"306"}},{"type":"Feature","geometry":{"type":"Point","coordinates":[106.73053,-6.15485]},"properties":{"title":"Jembatan Bar","marker-color":"#F9C300","koridor":"3r","halteId":"305"}},{"type":"Feature","geometry":{"type":"Point","coordinates":[106.726339,-6.153876]},"properties":{"title":"Rawa Buaya","marker-color":"#F9C300","koridor":"3r","halteId":"304"}},{"type":"Feature","geometry":{"type":"Point","coordinates":[106.71917,-6.15303]},"properties":{"title":"Sumur Bor","marker-color":"#F9C300","koridor":"3r","halteId":"303"}},{"type":"Feature","geometry":{"type":"Point","coordinates":[106.71525,-6.15477]},"properties":{"title":"Pesakih","marker-color":"#F9C300","koridor":"3r","halteId":"302"}},{"type":"Feature","geometry":{"type":"Point","coordinates":[106.705935,-6.154633]},"properties":{"title":"Kalideres","marker-color":"#F9C300","koridor":"3r","halteId":"301"}}]}
