{"type":"FeatureCollection","features":[{"type":"Feature","geometry":{"type":"Point","coordinates":[106.823473,-6.204296]},"properties":{"title":"Dukuh Atas 2","marker-color":"#410052","koridor":"4r","halteId":"417"}},{"type":"Feature","geometry":{"type":"Point","coordinates":[106.8334,-6.20511]},"properties":{"title":"Halimun","marker-color":"#410052","koridor":"4r","halteId":"416"}},{"type":"Feature","geometry":{"type":"Point","coordinates":[106.84104,-6.20709]},"properties":{"title":"Pasar Rumput","marker-color":"#410052","koridor":"4r","halteId":"415"}},{"type":"Feature","geometry":{"type":"Point","coordinates":[106.847479,-6.20896]},"properties":{"title":"Manggarai","marker-color":"#410052","koridor":"4r","halteId":"414"}},{"type":"Feature","geometry":{"type":"Point","coordinates":[106.854334,-6.19914]},"properties":{"title":"Matraman 2","marker-color":"#410052","koridor":"4r","halteId":"413"}},{"type":"Feature","geometry":{"type":"Point","coordinates":[106.860915,-6.194436]},"properties":{"title":"Pasar Genjing","marker-color":"#410052","koridor":"4r","halteId":"412"}},{"type":"Feature","geometry":{"type":"Point","coordinates":[106.864599,-6.192719]},"properties":{"title":"Utan Kay","marker-color":"#410052","koridor":"4r","halteId":"411"}},{"type":"Feature","geometry":{"type":"Point","coordinates":[106.86857,-6.19218]},"properties":{"title":"Pramuka LIA","marker-color":"#410052","koridor":"4r","halteId":"410"}},{"type":"Feature","geometry":{"type":"Point","coordinates":[106.874021,-6.192144]},"properties":{"title":"Pramuka BPKP","marker-color":"#410052","koridor":"4r","halteId":"409"}},{"type":"Feature","geometry":{"type":"Point","coordinates":[106.880197,-6.192865]},"properties":{"title":"UNJ","marker-color":"#410052","koridor":"4r","halteId":"408"}},{"type":"Feature","geometry":{"type":"Point","coordinates":[106.88367,-6.19323]},"properties":{"title":"Sunan Giri","marker-color":"#410052","koridor":"4r","halteId":"407"}},{"type":"Feature","geometry":{"type":"Point","coordinates":[106.88818,-6.19341]},"properties":{"title":"Velodrome","marker-color":"#410052","koridor":"4r","halteId":"406"}},{"type":"Feature","geometry":{"type":"Point","coordinates":[106.89167,-6.19346]},"properties":{"title":"Pemuda Rawamangun","marker-color":"#410052","koridor":"4r","halteId":"405"}},{"type":"Feature","geometry":{"type":"Point","coordinates":[106.89902,-6.19349]},"properties":{"title":"Layur","marker-color":"#410052","koridor":"4r","halteId":"404"}},{"type":"Feature","geometry":{"type":"Point","coordinates":[106.904992,-6.192333]},"properties":{"title":"TU Gas","marker-color":"#410052","koridor":"4r","halteId":"403"}},{"type":"Feature","geometry":{"type":"Point","coordinates":[106.905934,-6.187409]},"properties":{"title":"Pasar Pulogadung","marker-color":"#410052","koridor":"4r","halteId":"402"}},{"type":"Feature","geometry":{"type":"Point","coordinates":[106.90902,-6.183302]},"properties":{"title":"Pulo Gadung","marker-color":"#410052","koridor":"4r","halteId":"401"}}]}