{"type":"FeatureCollection","features":[{"type":"Feature","geometry":{"type":"Point","coordinates":[106.82043,-6.16582]},"properties":{"title":"Harmoni","marker-color":"#B4C278","koridor":"5Ar","halteId":"220"}},{"type":"Feature","geometry":{"type":"Point","coordinates":[106.828138,-6.167661]},"properties":{"title":"Pecenongan","marker-color":"#B4C278","koridor":"5Ar","halteId":"219"}},{"type":"Feature","geometry":{"type":"Point","coordinates":[106.830706,-6.168011]},"properties":{"title":"Juanda","marker-color":"#B4C278","koridor":"5Ar","halteId":"218"}},{"type":"Feature","geometry":{"type":"Point","coordinates":[106.838177,-6.162464]},"properties":{"title":"Pasar Bar","marker-color":"#B4C278","koridor":"5Ar","halteId":"316"}},{"type":"Feature","geometry":{"type":"Point","coordinates":[106.83818,-6.16245]},"properties":{"title":"Pasar Baru Timur","marker-color":"#B4C278","koridor":"5Ar","halteId":"505"}},{"type":"Feature","geometry":{"type":"Point","coordinates":[106.83429,-6.14678]},"properties":{"title":"Jembatan Merah","marker-color":"#B4C278","koridor":"5Ar","halteId":"504"}},{"type":"Feature","geometry":{"type":"Point","coordinates":[106.83247,-6.1372]},"properties":{"title":"Gunung. Sahari Mangga Dua","marker-color":"#B4C278","koridor":"5Ar","halteId":"503"}},{"type":"Feature","geometry":{"type":"Point","coordinates":[106.83163,-6.133655]},"properties":{"title":"Pademangan","marker-color":"#B4C278","koridor":"5Ar","halteId":"502"}},{"type":"Feature","geometry":{"type":"Point","coordinates":[106.830415,-6.127541]},"properties":{"title":"Ancol","marker-color":"#B4C278","koridor":"5Ar","halteId":"501"}}]}
