{"type":"FeatureCollection","features":[{"type":"Feature","geometry":{"type":"Point","coordinates":[106.82043,-6.16582]},"properties":{"title":"Harmoni","marker-color":"#7FC9BD","koridor":"7Ar","halteId":"220"}},{"type":"Feature","geometry":{"type":"Point","coordinates":[106.828138,-6.167661]},"properties":{"title":"Pecenongan","marker-color":"#7FC9BD","koridor":"7Ar","halteId":"219"}},{"type":"Feature","geometry":{"type":"Point","coordinates":[106.830706,-6.168011]},"properties":{"title":"Juanda","marker-color":"#7FC9BD","koridor":"7Ar","halteId":"218"}},{"type":"Feature","geometry":{"type":"Point","coordinates":[106.838177,-6.162464]},"properties":{"title":"Pasar Bar","marker-color":"#7FC9BD","koridor":"7Ar","halteId":"316"}},{"type":"Feature","geometry":{"type":"Point","coordinates":[106.84388,-6.18442]},"properties":{"title":"Pal Putih","marker-color":"#7FC9BD","koridor":"7Ar","halteId":"508"}},{"type":"Feature","geometry":{"type":"Point","coordinates":[106.84605,-6.18818]},"properties":{"title":"Kramat Sentiong NU","marker-color":"#7FC9BD","koridor":"7Ar","halteId":"509"}},{"type":"Feature","geometry":{"type":"Point","coordinates":[106.84903,-6.19364]},"properties":{"title":"Salemba UI","marker-color":"#7FC9BD","koridor":"7Ar","halteId":"510"}},{"type":"Feature","geometry":{"type":"Point","coordinates":[106.851111,-6.196844]},"properties":{"title":"Salemba Carolus","marker-color":"#7FC9BD","koridor":"7Ar","halteId":"511"}},{"type":"Feature","geometry":{"type":"Point","coordinates":[106.854472,-6.20006]},"properties":{"title":"Matraman 1","marker-color":"#7FC9BD","koridor":"7Ar","halteId":"512"}},{"type":"Feature","geometry":{"type":"Point","coordinates":[106.85705,-6.20295]},"properties":{"title":"Tegalan","marker-color":"#7FC9BD","koridor":"7Ar","halteId":"513"}},{"type":"Feature","geometry":{"type":"Point","coordinates":[106.85924,-6.20856]},"properties":{"title":"Slamet Riyadi","marker-color":"#7FC9BD","koridor":"7Ar","halteId":"514"}},{"type":"Feature","geometry":{"type":"Point","coordinates":[106.861284,-6.213178]},"properties":{"title":"Kebon Pala","marker-color":"#7FC9BD","koridor":"7Ar","halteId":"515"}},{"type":"Feature","geometry":{"type":"Point","coordinates":[106.86627,-6.21565]},"properties":{"title":"Pasar Jatinegara","marker-color":"#7FC9BD","koridor":"7Ar","halteId":"516"}},{"type":"Feature","geometry":{"type":"Point","coordinates":[106.868004,-6.221811]},"properties":{"title":"Jatinegara RS. Premier","marker-color":"#7FC9BD","koridor":"7Ar","halteId":"517"}},{"type":"Feature","geometry":{"type":"Point","coordinates":[106.86714,-6.229717]},"properties":{"title":"Bidara Cina","marker-color":"#7FC9BD","koridor":"7Ar","halteId":"713"}},{"type":"Feature","geometry":{"type":"Point","coordinates":[106.86791,-6.2355]},"properties":{"title":"Gelanggang Remaja","marker-color":"#7FC9BD","koridor":"7Ar","halteId":"712"}},{"type":"Feature","geometry":{"type":"Point","coordinates":[106.86876,-6.24361]},"properties":{"title":"Cawang Otista","marker-color":"#7FC9BD","koridor":"7Ar","halteId":"711"}},{"type":"Feature","geometry":{"type":"Point","coordinates":[106.871994,-6.245966]},"properties":{"title":"BNN","marker-color":"#7FC9BD","koridor":"7Ar","halteId":"710"}},{"type":"Feature","geometry":{"type":"Point","coordinates":[106.869925,-6.257825]},"properties":{"title":"BKN","marker-color":"#7FC9BD","koridor":"7Ar","halteId":"708"}},{"type":"Feature","geometry":{"type":"Point","coordinates":[106.866328,-6.262507]},"properties":{"title":"PGC 1","marker-color":"#7FC9BD","koridor":"7Ar","halteId":"707"}}]}