{"type":"FeatureCollection","features":[{"type":"Feature","geometry":{"type":"Point","coordinates":[106.830415,-6.127541]},"properties":{"title":"Ancol","marker-color":"#F47C01","koridor":"7Br","halteId":"501"}},{"type":"Feature","geometry":{"type":"Point","coordinates":[106.83163,-6.133655]},"properties":{"title":"Pademangan","marker-color":"#F47C01","koridor":"7Br","halteId":"502"}},{"type":"Feature","geometry":{"type":"Point","coordinates":[106.83247,-6.1372]},"properties":{"title":"Gunung. Sahari Mangga Dua","marker-color":"#F47C01","koridor":"7Br","halteId":"503"}},{"type":"Feature","geometry":{"type":"Point","coordinates":[106.83429,-6.14678]},"properties":{"title":"Jembatan Merah","marker-color":"#F47C01","koridor":"7Br","halteId":"504"}},{"type":"Feature","geometry":{"type":"Point","coordinates":[106.83818,-6.16245]},"properties":{"title":"Pasar Baru Timur","marker-color":"#F47C01","koridor":"7Br","halteId":"505"}},{"type":"Feature","geometry":{"type":"Point","coordinates":[106.839077,-6.165981]},"properties":{"title":"Budi Utomo","marker-color":"#F47C01","koridor":"7Br","halteId":"506"}},{"type":"Feature","geometry":{"type":"Point","coordinates":[106.84388,-6.18442]},"properties":{"title":"Pal Putih","marker-color":"#F47C01","koridor":"7Br","halteId":"508"}},{"type":"Feature","geometry":{"type":"Point","coordinates":[106.84605,-6.18818]},"properties":{"title":"Kramat Sentiong NU","marker-color":"#F47C01","koridor":"7Br","halteId":"509"}},{"type":"Feature","geometry":{"type":"Point","coordinates":[106.84903,-6.19364]},"properties":{"title":"Salemba UI","marker-color":"#F47C01","koridor":"7Br","halteId":"510"}},{"type":"Feature","geometry":{"type":"Point","coordinates":[106.851111,-6.196844]},"properties":{"title":"Salemba Carolus","marker-color":"#F47C01","koridor":"7Br","halteId":"511"}},{"type":"Feature","geometry":{"type":"Point","coordinates":[106.854472,-6.20006]},"properties":{"title":"Matraman 1","marker-color":"#F47C01","koridor":"7Br","halteId":"512"}},{"type":"Feature","geometry":{"type":"Point","coordinates":[106.85705,-6.20295]},"properties":{"title":"Tegalan","marker-color":"#F47C01","koridor":"7Br","halteId":"513"}},{"type":"Feature","geometry":{"type":"Point","coordinates":[106.85924,-6.20856]},"properties":{"title":"Slamet Riyadi","marker-color":"#F47C01","koridor":"7Br","halteId":"514"}},{"type":"Feature","geometry":{"type":"Point","coordinates":[106.861284,-6.213178]},"properties":{"title":"Kebon Pala","marker-color":"#F47C01","koridor":"7Br","halteId":"515"}},{"type":"Feature","geometry":{"type":"Point","coordinates":[106.86627,-6.21565]},"properties":{"title":"Pasar Jatinegara","marker-color":"#F47C01","koridor":"7Br","halteId":"516"}},{"type":"Feature","geometry":{"type":"Point","coordinates":[106.868004,-6.221811]},"properties":{"title":"Jatinegara RS. Premier","marker-color":"#F47C01","koridor":"7Br","halteId":"517"}},{"type":"Feature","geometry":{"type":"Point","coordinates":[106.86714,-6.229717]},"properties":{"title":"Bidara Cina","marker-color":"#F47C01","koridor":"7Br","halteId":"713"}},{"type":"Feature","geometry":{"type":"Point","coordinates":[106.86791,-6.2355]},"properties":{"title":"Gelanggang Remaja","marker-color":"#F47C01","koridor":"7Br","halteId":"712"}},{"type":"Feature","geometry":{"type":"Point","coordinates":[106.86876,-6.24361]},"properties":{"title":"Cawang Otista","marker-color":"#F47C01","koridor":"7Br","halteId":"711"}},{"type":"Feature","geometry":{"type":"Point","coordinates":[106.871994,-6.245966]},"properties":{"title":"BNN","marker-color":"#F47C01","koridor":"7Br","halteId":"710"}},{"type":"Feature","geometry":{"type":"Point","coordinates":[106.869925,-6.257825]},"properties":{"title":"BKN","marker-color":"#F47C01","koridor":"7Br","halteId":"708"}},{"type":"Feature","geometry":{"type":"Point","coordinates":[106.866328,-6.262507]},"properties":{"title":"PGC 1","marker-color":"#F47C01","koridor":"7Br","halteId":"707"}}]}
