{"type":"FeatureCollection","features":[{"type":"Feature","geometry":{"type":"Point","coordinates":[106.788583,-6.167393]},"properties":{"title":"Grogol 2","marker-color":"#718800","koridor":"9Ar","halteId":"921"}},{"type":"Feature","geometry":{"type":"Point","coordinates":[106.792507,-6.176049]},"properties":{"title":"S Parman Podomoro City","marker-color":"#718800","koridor":"9Ar","halteId":"920"}},{"type":"Feature","geometry":{"type":"Point","coordinates":[106.7974799,-6.184798]},"properties":{"title":"RS. Harapan Kita","marker-color":"#718800","koridor":"9Ar","halteId":"919"}},{"type":"Feature","geometry":{"type":"Point","coordinates":[106.797147,-6.190175]},"properties":{"title":"Slipi Kemanggisan","marker-color":"#718800","koridor":"9Ar","halteId":"918"}},{"type":"Feature","geometry":{"type":"Point","coordinates":[106.799983,-6.201959]},"properties":{"title":"Slipi Petamburan","marker-color":"#718800","koridor":"9Ar","halteId":"917"}},{"type":"Feature","geometry":{"type":"Point","coordinates":[106.8089566,-6.2141187]},"properties":{"title":"Senayan JCC","marker-color":"#718800","koridor":"9Ar","halteId":"916"}},{"type":"Feature","geometry":{"type":"Point","coordinates":[106.813877,-6.220973]},"properties":{"title":"Semanggi","marker-color":"#718800","koridor":"9Ar","halteId":"915"}},{"type":"Feature","geometry":{"type":"Point","coordinates":[106.816626,-6.227255]},"properties":{"title":"Gatot Subroto LIPI","marker-color":"#718800","koridor":"9Ar","halteId":"914"}},{"type":"Feature","geometry":{"type":"Point","coordinates":[106.8228759,-6.233154]},"properties":{"title":"Gatot Subroto Jamsostek","marker-color":"#718800","koridor":"9Ar","halteId":"913"}},{"type":"Feature","geometry":{"type":"Point","coordinates":[106.827225,-6.236804]},"properties":{"title":"Kuningan Barat","marker-color":"#718800","koridor":"9Ar","halteId":"912"}},{"type":"Feature","geometry":{"type":"Point","coordinates":[106.830575,-6.238897]},"properties":{"title":"Tegal Parang","marker-color":"#718800","koridor":"9Ar","halteId":"911"}},{"type":"Feature","geometry":{"type":"Point","coordinates":[106.837717,-6.241312]},"properties":{"title":"Pancoran Barat","marker-color":"#718800","koridor":"9Ar","halteId":"910"}},{"type":"Feature","geometry":{"type":"Point","coordinates":[106.843864,-6.243093]},"properties":{"title":"Pancoran Tug","marker-color":"#718800","koridor":"9Ar","halteId":"909"}},{"type":"Feature","geometry":{"type":"Point","coordinates":[106.851643,-6.243204]},"properties":{"title":"Tebet BKPM","marker-color":"#718800","koridor":"9Ar","halteId":"908"}},{"type":"Feature","geometry":{"type":"Point","coordinates":[106.857662,-6.243357]},"properties":{"title":"Cikoko Stasiun Cawang","marker-color":"#718800","koridor":"9Ar","halteId":"907"}},{"type":"Feature","geometry":{"type":"Point","coordinates":[106.86305,-6.243132]},"properties":{"title":"Cawang Ciliwung","marker-color":"#718800","koridor":"9Ar","halteId":"906"}},{"type":"Feature","geometry":{"type":"Point","coordinates":[106.871994,-6.245966]},"properties":{"title":"Cawang BNN","marker-color":"#718800","koridor":"9Ar","halteId":"904"}},{"type":"Feature","geometry":{"type":"Point","coordinates":[106.87359,-6.25035]},"properties":{"title":"Cawang UKI","marker-color":"#718800","koridor":"9Ar","halteId":"903"}},{"type":"Feature","geometry":{"type":"Point","coordinates":[106.869914,-6.257821]},"properties":{"title":"Sutoyo BKN","marker-color":"#718800","koridor":"9Ar","halteId":"1021"}},{"type":"Feature","geometry":{"type":"Point","coordinates":[106.866328,-6.262507]},"properties":{"title":"PGC 2","marker-color":"#718800","koridor":"9Ar","halteId":"1022"}}]}