{"type":"FeatureCollection","features":[{"type":"Feature","geometry":{"type":"Point","coordinates":[106.801577,-6.243451]},"properties":{"title":"Blok M","marker-color":"#CC1A28","koridor":"1","halteId":"101"}},{"type":"Feature","geometry":{"type":"Point","coordinates":[106.79838,-6.23502]},"properties":{"title":"Masjid Agung","marker-color":"#CC1A28","koridor":"1","halteId":"102"}},{"type":"Feature","geometry":{"type":"Point","coordinates":[106.80141,-6.22748]},"properties":{"title":"Bundaran Senayan","marker-color":"#CC1A28","koridor":"1","halteId":"103"}},{"type":"Feature","geometry":{"type":"Point","coordinates":[106.80582,-6.22418]},"properties":{"title":"Gelora Bung Karno","marker-color":"#CC1A28","koridor":"1","halteId":"104"}},{"type":"Feature","geometry":{"type":"Point","coordinates":[106.80967,-6.22151]},"properties":{"title":"Polda Metro Jaya","marker-color":"#CC1A28","koridor":"1","halteId":"105"}},{"type":"Feature","geometry":{"type":"Point","coordinates":[106.81531,-6.217069]},"properties":{"title":"Bendungan Hilir","marker-color":"#CC1A28","koridor":"1","halteId":"106"}},{"type":"Feature","geometry":{"type":"Point","coordinates":[106.818265,-6.214742]},"properties":{"title":"Karet","marker-color":"#CC1A28","koridor":"1","halteId":"107"}},{"type":"Feature","geometry":{"type":"Point","coordinates":[106.821215,-6.210182]},"properties":{"title":"Setiabudi","marker-color":"#CC1A28","koridor":"1","halteId":"108"}},{"type":"Feature","geometry":{"type":"Point","coordinates":[106.822255,-6.205641]},"properties":{"title":"Dukuh Atas 1","marker-color":"#CC1A28","koridor":"1","halteId":"109"}},{"type":"Feature","geometry":{"type":"Point","coordinates":[106.82312,-6.19864]},"properties":{"title":"Tosari ICBC","marker-color":"#CC1A28","koridor":"1","halteId":"110"}},{"type":"Feature","geometry":{"type":"Point","coordinates":[106.823029,-6.19361]},"properties":{"title":"Bundaran HI","marker-color":"#CC1A28","koridor":"1","halteId":"111"}},{"type":"Feature","geometry":{"type":"Point","coordinates":[106.822993,-6.18797]},"properties":{"title":"Sarinah","marker-color":"#CC1A28","koridor":"1","halteId":"112"}},{"type":"Feature","geometry":{"type":"Point","coordinates":[106.82296,-6.1827]},"properties":{"title":"Bank Indonesia","marker-color":"#CC1A28","koridor":"1","halteId":"113"}},{"type":"Feature","geometry":{"type":"Point","coordinates":[106.822795,-6.175533]},"properties":{"title":"Monas","marker-color":"#CC1A28","koridor":"1","halteId":"114"}},{"type":"Feature","geometry":{"type":"Point","coordinates":[106.82043,-6.16582]},"properties":{"title":"Harmoni","marker-color":"#CC1A28","koridor":"1","halteId":"115"}},{"type":"Feature","geometry":{"type":"Point","coordinates":[106.819241,-6.160152]},"properties":{"title":"Sawah Besar","marker-color":"#CC1A28","koridor":"1","halteId":"116"}},{"type":"Feature","geometry":{"type":"Point","coordinates":[106.817432,-6.152098]},"properties":{"title":"Mangga Besar","marker-color":"#CC1A28","koridor":"1","halteId":"117"}},{"type":"Feature","geometry":{"type":"Point","coordinates":[106.81672,-6.149211]},"properties":{"title":"Olimo","marker-color":"#CC1A28","koridor":"1","halteId":"118"}},{"type":"Feature","geometry":{"type":"Point","coordinates":[106.815553,-6.144807]},"properties":{"title":"Glodok","marker-color":"#CC1A28","koridor":"1","halteId":"119"}},{"type":"Feature","geometry":{"type":"Point","coordinates":[106.813958,-6.137758]},"properties":{"title":"Kota","marker-color":"#CC1A28","koridor":"1","halteId":"120"}},{"type":"Feature","geometry":{"type":"Point","coordinates":[106.813958,-6.137758]},"properties":{"title":"Kota","marker-color":"#CC1A28","koridor":"1r","halteId":"120"}},{"type":"Feature","geometry":{"type":"Point","coordinates":[106.815553,-6.144807]},"properties":{"title":"Glodok","marker-color":"#CC1A28","koridor":"1r","halteId":"119"}},{"type":"Feature","geometry":{"type":"Point","coordinates":[106.81672,-6.149211]},"properties":{"title":"Olimo","marker-color":"#CC1A28","koridor":"1r","halteId":"118"}},{"type":"Feature","geometry":{"type":"Point","coordinates":[106.817432,-6.152098]},"properties":{"title":"Mangga Besar","marker-color":"#CC1A28","koridor":"1r","halteId":"117"}},{"type":"Feature","geometry":{"type":"Point","coordinates":[106.819241,-6.160152]},"properties":{"title":"Sawah Besar","marker-color":"#CC1A28","koridor":"1r","halteId":"116"}},{"type":"Feature","geometry":{"type":"Point","coordinates":[106.82043,-6.16582]},"properties":{"title":"Harmoni","marker-color":"#CC1A28","koridor":"1r","halteId":"115"}},{"type":"Feature","geometry":{"type":"Point","coordinates":[106.822795,-6.175533]},"properties":{"title":"Monas","marker-color":"#CC1A28","koridor":"1r","halteId":"114"}},{"type":"Feature","geometry":{"type":"Point","coordinates":[106.82296,-6.1827]},"properties":{"title":"Bank Indonesia","marker-color":"#CC1A28","koridor":"1r","halteId":"113"}},{"type":"Feature","geometry":{"type":"Point","coordinates":[106.822993,-6.18797]},"properties":{"title":"Sarinah","marker-color":"#CC1A28","koridor":"1r","halteId":"112"}},{"type":"Feature","geometry":{"type":"Point","coordinates":[106.823029,-6.19361]},"properties":{"title":"Bundaran HI","marker-color":"#CC1A28","koridor":"1r","halteId":"111"}},{"type":"Feature","geometry":{"type":"Point","coordinates":[106.82312,-6.19864]},"properties":{"title":"Tosari ICBC","marker-color":"#CC1A28","koridor":"1r","halteId":"110"}},{"type":"Feature","geometry":{"type":"Point","coordinates":[106.822255,-6.205641]},"properties":{"title":"Dukuh Atas 1","marker-color":"#CC1A28","koridor":"1r","halteId":"109"}},{"type":"Feature","geometry":{"type":"Point","coordinates":[106.821215,-6.210182]},"properties":{"title":"Setiabudi","marker-color":"#CC1A28","koridor":"1r","halteId":"108"}},{"type":"Feature","geometry":{"type":"Point","coordinates":[106.818265,-6.214742]},"properties":{"title":"Karet","marker-color":"#CC1A28","koridor":"1r","halteId":"107"}},{"type":"Feature","geometry":{"type":"Point","coordinates":[106.81531,-6.217069]},"properties":{"title":"Bendungan Hilir","marker-color":"#CC1A28","koridor":"1r","halteId":"106"}},{"type":"Feature","geometry":{"type":"Point","coordinates":[106.80967,-6.22151]},"properties":{"title":"Polda Metro Jaya","marker-color":"#CC1A28","koridor":"1r","halteId":"105"}},{"type":"Feature","geometry":{"type":"Point","coordinates":[106.80582,-6.22418]},"properties":{"title":"Gelora Bung Karno","marker-color":"#CC1A28","koridor":"1r","halteId":"104"}},{"type":"Feature","geometry":{"type":"Point","coordinates":[106.80141,-6.22748]},"properties":{"title":"Bundaran Senayan","marker-color":"#CC1A28","koridor":"1r","halteId":"103"}},{"type":"Feature","geometry":{"type":"Point","coordinates":[106.79838,-6.23502]},"properties":{"title":"Masjid Agung","marker-color":"#CC1A28","koridor":"1r","halteId":"102"}},{"type":"Feature","geometry":{"type":"Point","coordinates":[106.801577,-6.243451]},"properties":{"title":"Blok M","marker-color":"#CC1A28","koridor":"1r","halteId":"101"}},{"type":"Feature","geometry":{"type":"Point","coordinates":[106.90902,-6.183302]},"properties":{"title":"Pulo Gadung","marker-color":"#000085","koridor":"2","halteId":"201"}},{"type":"Feature","geometry":{"type":"Point","coordinates":[106.898504,-6.178141]},"properties":{"title":"Bermis","marker-color":"#000085","koridor":"2","halteId":"202"}},{"type":"Feature","geometry":{"type":"Point","coordinates":[106.892724,-6.17472]},"properties":{"title":"Pulo Mas","marker-color":"#000085","koridor":"2","halteId":"203"}},{"type":"Feature","geometry":{"type":"Point","coordinates":[106.888752,-6.171762]},"properties":{"title":"ASMI","marker-color":"#000085","koridor":"2","halteId":"204"}},{"type":"Feature","geometry":{"type":"Point","coordinates":[106.882592,-6.167988]},"properties":{"title":"Pedongkelan","marker-color":"#000085","koridor":"2","halteId":"205"}},{"type":"Feature","geometry":{"type":"Point","coordinates":[106.876055,-6.166521]},"properties":{"title":"Cempaka Timur","marker-color":"#000085","koridor":"2","halteId":"206"}},{"type":"Feature","geometry":{"type":"Point","coordinates":[106.870417,-6.168593]},"properties":{"title":"RS Islam","marker-color":"#000085","koridor":"2","halteId":"207"}},{"type":"Feature","geometry":{"type":"Point","coordinates":[106.866614,-6.170374]},"properties":{"title":"Cempaka Tengah","marker-color":"#000085","koridor":"2","halteId":"208"}},{"type":"Feature","geometry":{"type":"Point","coordinates":[106.862512,-6.172279]},"properties":{"title":"Pasar Cempaka Putih","marker-color":"#000085","koridor":"2","halteId":"209"}},{"type":"Feature","geometry":{"type":"Point","coordinates":[106.858038,-6.173912]},"properties":{"title":"Rawa Selatan","marker-color":"#000085","koridor":"2","halteId":"210"}},{"type":"Feature","geometry":{"type":"Point","coordinates":[106.854751,-6.174403]},"properties":{"title":"Galur","marker-color":"#000085","koridor":"2","halteId":"211"}},{"type":"Feature","geometry":{"type":"Point","coordinates":[106.842622,-6.178122]},"properties":{"title":"Senen","marker-color":"#000085","koridor":"2","halteId":"212"}},{"type":"Feature","geometry":{"type":"Point","coordinates":[106.840175,-6.176701]},"properties":{"title":"Cempaka Tengah","marker-color":"#000085","koridor":"2","halteId":"213"}},{"type":"Feature","geometry":{"type":"Point","coordinates":[106.83674,-6.175499]},"properties":{"title":"RSPAD","marker-color":"#000085","koridor":"2","halteId":"214"}},{"type":"Feature","geometry":{"type":"Point","coordinates":[106.834699,-6.17349]},"properties":{"title":"Depl","marker-color":"#000085","koridor":"2","halteId":"215"}},{"type":"Feature","geometry":{"type":"Point","coordinates":[106.830344,-6.174548]},"properties":{"title":"Gambir 1","marker-color":"#000085","koridor":"2","halteId":"216"}},{"type":"Feature","geometry":{"type":"Point","coordinates":[106.830988,-6.172221]},"properties":{"title":"Istiqlal","marker-color":"#000085","koridor":"2","halteId":"217"}},{"type":"Feature","geometry":{"type":"Point","coordinates":[106.830706,-6.168011]},"properties":{"title":"Juanda","marker-color":"#000085","koridor":"2","halteId":"218"}},{"type":"Feature","geometry":{"type":"Point","coordinates":[106.828138,-6.167661]},"properties":{"title":"Pecenongan","marker-color":"#000085","koridor":"2","halteId":"219"}},{"type":"Feature","geometry":{"type":"Point","coordinates":[106.82043,-6.16582]},"properties":{"title":"Harmoni","marker-color":"#000085","koridor":"2","halteId":"220"}},{"type":"Feature","geometry":{"type":"Point","coordinates":[106.82043,-6.16582]},"properties":{"title":"Harmoni","marker-color":"#000085","koridor":"2r","halteId":"220"}},{"type":"Feature","geometry":{"type":"Point","coordinates":[106.822795,-6.175533]},"properties":{"title":"Monas","marker-color":"#000085","koridor":"2r","halteId":"221"}},{"type":"Feature","geometry":{"type":"Point","coordinates":[106.82766,-6.180228]},"properties":{"title":"Balaikota","marker-color":"#000085","koridor":"2r","halteId":"222"}},{"type":"Feature","geometry":{"type":"Point","coordinates":[106.831086,-6.178879]},"properties":{"title":"Gambir 2","marker-color":"#000085","koridor":"2r","halteId":"223"}},{"type":"Feature","geometry":{"type":"Point","coordinates":[106.838528,-6.181127]},"properties":{"title":"Kwitang","marker-color":"#000085","koridor":"2r","halteId":"224"}},{"type":"Feature","geometry":{"type":"Point","coordinates":[106.842622,-6.178122]},"properties":{"title":"Senen","marker-color":"#000085","koridor":"2r","halteId":"212"}},{"type":"Feature","geometry":{"type":"Point","coordinates":[106.854751,-6.174403]},"properties":{"title":"Galur","marker-color":"#000085","koridor":"2r","halteId":"211"}},{"type":"Feature","geometry":{"type":"Point","coordinates":[106.858038,-6.173912]},"properties":{"title":"Rawa Selatan","marker-color":"#000085","koridor":"2r","halteId":"210"}},{"type":"Feature","geometry":{"type":"Point","coordinates":[106.862512,-6.172279]},"properties":{"title":"Pasar Cempaka Putih","marker-color":"#000085","koridor":"2r","halteId":"209"}},{"type":"Feature","geometry":{"type":"Point","coordinates":[106.866614,-6.170374]},"properties":{"title":"Cempaka Tengah","marker-color":"#000085","koridor":"2r","halteId":"208"}},{"type":"Feature","geometry":{"type":"Point","coordinates":[106.870417,-6.168593]},"properties":{"title":"RS Islam","marker-color":"#000085","koridor":"2r","halteId":"207"}},{"type":"Feature","geometry":{"type":"Point","coordinates":[106.876055,-6.166521]},"properties":{"title":"Cempaka Timur","marker-color":"#000085","koridor":"2r","halteId":"206"}},{"type":"Feature","geometry":{"type":"Point","coordinates":[106.882592,-6.167988]},"properties":{"title":"Pedongkelan","marker-color":"#000085","koridor":"2r","halteId":"205"}},{"type":"Feature","geometry":{"type":"Point","coordinates":[106.888752,-6.171762]},"properties":{"title":"ASMI","marker-color":"#000085","koridor":"2r","halteId":"204"}},{"type":"Feature","geometry":{"type":"Point","coordinates":[106.892724,-6.17472]},"properties":{"title":"Pulo Mas","marker-color":"#000085","koridor":"2r","halteId":"203"}},{"type":"Feature","geometry":{"type":"Point","coordinates":[106.898504,-6.178141]},"properties":{"title":"Bermis","marker-color":"#000085","koridor":"2r","halteId":"202"}},{"type":"Feature","geometry":{"type":"Point","coordinates":[106.90902,-6.183302]},"properties":{"title":"Pulo Gadung","marker-color":"#000085","koridor":"2r","halteId":"201"}},{"type":"Feature","geometry":{"type":"Point","coordinates":[106.90902,-6.183302]},"properties":{"title":"Pulo Gadung","marker-color":"#5786CA","koridor":"2A","halteId":"201"}},{"type":"Feature","geometry":{"type":"Point","coordinates":[106.898504,-6.178141]},"properties":{"title":"Bermis","marker-color":"#5786CA","koridor":"2A","halteId":"202"}},{"type":"Feature","geometry":{"type":"Point","coordinates":[106.892724,-6.17472]},"properties":{"title":"Pulo Mas","marker-color":"#5786CA","koridor":"2A","halteId":"203"}},{"type":"Feature","geometry":{"type":"Point","coordinates":[106.888752,-6.171762]},"properties":{"title":"ASMI","marker-color":"#5786CA","koridor":"2A","halteId":"204"}},{"type":"Feature","geometry":{"type":"Point","coordinates":[106.882592,-6.167988]},"properties":{"title":"Pedongkelan","marker-color":"#5786CA","koridor":"2A","halteId":"205"}},{"type":"Feature","geometry":{"type":"Point","coordinates":[106.876055,-6.166521]},"properties":{"title":"Cempaka Timur","marker-color":"#5786CA","koridor":"2A","halteId":"206"}},{"type":"Feature","geometry":{"type":"Point","coordinates":[106.870417,-6.168593]},"properties":{"title":"RS Islam","marker-color":"#5786CA","koridor":"2A","halteId":"207"}},{"type":"Feature","geometry":{"type":"Point","coordinates":[106.866614,-6.170374]},"properties":{"title":"Cempaka Tengah","marker-color":"#5786CA","koridor":"2A","halteId":"208"}},{"type":"Feature","geometry":{"type":"Point","coordinates":[106.862512,-6.172279]},"properties":{"title":"Pasar Cempaka Putih","marker-color":"#5786CA","koridor":"2A","halteId":"209"}},{"type":"Feature","geometry":{"type":"Point","coordinates":[106.858038,-6.173912]},"properties":{"title":"Rawa Selatan","marker-color":"#5786CA","koridor":"2A","halteId":"210"}},{"type":"Feature","geometry":{"type":"Point","coordinates":[106.854751,-6.174403]},"properties":{"title":"Galur","marker-color":"#5786CA","koridor":"2A","halteId":"211"}},{"type":"Feature","geometry":{"type":"Point","coordinates":[106.842622,-6.178122]},"properties":{"title":"Senen","marker-color":"#5786CA","koridor":"2A","halteId":"212"}},{"type":"Feature","geometry":{"type":"Point","coordinates":[106.840175,-6.176701]},"properties":{"title":"Cempaka Tengah","marker-color":"#5786CA","koridor":"2A","halteId":"213"}},{"type":"Feature","geometry":{"type":"Point","coordinates":[106.83674,-6.175499]},"properties":{"title":"RSPAD","marker-color":"#5786CA","koridor":"2A","halteId":"214"}},{"type":"Feature","geometry":{"type":"Point","coordinates":[106.834699,-6.17349]},"properties":{"title":"Depl","marker-color":"#5786CA","koridor":"2A","halteId":"215"}},{"type":"Feature","geometry":{"type":"Point","coordinates":[106.830344,-6.174548]},"properties":{"title":"Gambir 1","marker-color":"#5786CA","koridor":"2A","halteId":"216"}},{"type":"Feature","geometry":{"type":"Point","coordinates":[106.830988,-6.172221]},"properties":{"title":"Istiqlal","marker-color":"#5786CA","koridor":"2A","halteId":"217"}},{"type":"Feature","geometry":{"type":"Point","coordinates":[106.830706,-6.168011]},"properties":{"title":"Juanda","marker-color":"#5786CA","koridor":"2A","halteId":"218"}},{"type":"Feature","geometry":{"type":"Point","coordinates":[106.828138,-6.167661]},"properties":{"title":"Pecenongan","marker-color":"#5786CA","koridor":"2A","halteId":"219"}},{"type":"Feature","geometry":{"type":"Point","coordinates":[106.82043,-6.16582]},"properties":{"title":"Harmoni","marker-color":"#5786CA","koridor":"2A","halteId":"220"}},{"type":"Feature","geometry":{"type":"Point","coordinates":[106.822795,-6.175533]},"properties":{"title":"Monas","marker-color":"#5786CA","koridor":"2A","halteId":"221"}},{"type":"Feature","geometry":{"type":"Point","coordinates":[106.82296,-6.1827]},"properties":{"title":"Bank Indonesia","marker-color":"#5786CA","koridor":"2A","halteId":"113"}},{"type":"Feature","geometry":{"type":"Point","coordinates":[106.822993,-6.18797]},"properties":{"title":"Sarinah","marker-color":"#5786CA","koridor":"2A","halteId":"112"}},{"type":"Feature","geometry":{"type":"Point","coordinates":[106.823029,-6.19361]},"properties":{"title":"Bundaran HI","marker-color":"#5786CA","koridor":"2A","halteId":"111"}},{"type":"Feature","geometry":{"type":"Point","coordinates":[106.82312,-6.19864]},"properties":{"title":"Tosari ICBC","marker-color":"#5786CA","koridor":"2A","halteId":"110"}},{"type":"Feature","geometry":{"type":"Point","coordinates":[106.822255,-6.205641]},"properties":{"title":"Dukuh Atas 1","marker-color":"#5786CA","koridor":"2A","halteId":"109"}},{"type":"Feature","geometry":{"type":"Point","coordinates":[106.821215,-6.210182]},"properties":{"title":"Setiabudi","marker-color":"#5786CA","koridor":"2A","halteId":"108"}},{"type":"Feature","geometry":{"type":"Point","coordinates":[106.818265,-6.214742]},"properties":{"title":"Karet","marker-color":"#5786CA","koridor":"2A","halteId":"107"}},{"type":"Feature","geometry":{"type":"Point","coordinates":[106.81531,-6.217069]},"properties":{"title":"Bendungan Hilir","marker-color":"#5786CA","koridor":"2A","halteId":"106"}},{"type":"Feature","geometry":{"type":"Point","coordinates":[106.80967,-6.22151]},"properties":{"title":"Polda Metro Jaya","marker-color":"#5786CA","koridor":"2A","halteId":"105"}},{"type":"Feature","geometry":{"type":"Point","coordinates":[106.80582,-6.22418]},"properties":{"title":"Gelora Bung Karno","marker-color":"#5786CA","koridor":"2A","halteId":"104"}},{"type":"Feature","geometry":{"type":"Point","coordinates":[106.80141,-6.22748]},"properties":{"title":"Bundaran Senayan","marker-color":"#5786CA","koridor":"2A","halteId":"103"}},{"type":"Feature","geometry":{"type":"Point","coordinates":[106.80141,-6.22748]},"properties":{"title":"Bundaran Senayan","marker-color":"#5786CA","koridor":"2Ar","halteId":"103"}},{"type":"Feature","geometry":{"type":"Point","coordinates":[106.80582,-6.22418]},"properties":{"title":"Gelora Bung Karno","marker-color":"#5786CA","koridor":"2Ar","halteId":"104"}},{"type":"Feature","geometry":{"type":"Point","coordinates":[106.80967,-6.22151]},"properties":{"title":"Polda Metro Jaya","marker-color":"#5786CA","koridor":"2Ar","halteId":"105"}},{"type":"Feature","geometry":{"type":"Point","coordinates":[106.81531,-6.217069]},"properties":{"title":"Bendungan Hilir","marker-color":"#5786CA","koridor":"2Ar","halteId":"106"}},{"type":"Feature","geometry":{"type":"Point","coordinates":[106.818265,-6.214742]},"properties":{"title":"Karet","marker-color":"#5786CA","koridor":"2Ar","halteId":"107"}},{"type":"Feature","geometry":{"type":"Point","coordinates":[106.821215,-6.210182]},"properties":{"title":"Setiabudi","marker-color":"#5786CA","koridor":"2Ar","halteId":"108"}},{"type":"Feature","geometry":{"type":"Point","coordinates":[106.822255,-6.205641]},"properties":{"title":"Dukuh Atas 1","marker-color":"#5786CA","koridor":"2Ar","halteId":"109"}},{"type":"Feature","geometry":{"type":"Point","coordinates":[106.82312,-6.19864]},"properties":{"title":"Tosari ICBC","marker-color":"#5786CA","koridor":"2Ar","halteId":"110"}},{"type":"Feature","geometry":{"type":"Point","coordinates":[106.823029,-6.19361]},"properties":{"title":"Bundaran HI","marker-color":"#5786CA","koridor":"2Ar","halteId":"111"}},{"type":"Feature","geometry":{"type":"Point","coordinates":[106.822993,-6.18797]},"properties":{"title":"Sarinah","marker-color":"#5786CA","koridor":"2Ar","halteId":"112"}},{"type":"Feature","geometry":{"type":"Point","coordinates":[106.82296,-6.1827]},"properties":{"title":"Bank Indonesia","marker-color":"#5786CA","koridor":"2Ar","halteId":"113"}},{"type":"Feature","geometry":{"type":"Point","coordinates":[106.82766,-6.180228]},"properties":{"title":"Balaikota","marker-color":"#5786CA","koridor":"2Ar","halteId":"222"}},{"type":"Feature","geometry":{"type":"Point","coordinates":[106.831086,-6.178879]},"properties":{"title":"Gambir 2","marker-color":"#5786CA","koridor":"2Ar","halteId":"223"}},{"type":"Feature","geometry":{"type":"Point","coordinates":[106.838528,-6.181127]},"properties":{"title":"Kwitang","marker-color":"#5786CA","koridor":"2Ar","halteId":"224"}},{"type":"Feature","geometry":{"type":"Point","coordinates":[106.842622,-6.178122]},"properties":{"title":"Senen","marker-color":"#5786CA","koridor":"2Ar","halteId":"212"}},{"type":"Feature","geometry":{"type":"Point","coordinates":[106.854751,-6.174403]},"properties":{"title":"Galur","marker-color":"#5786CA","koridor":"2Ar","halteId":"211"}},{"type":"Feature","geometry":{"type":"Point","coordinates":[106.858038,-6.173912]},"properties":{"title":"Rawa Selatan","marker-color":"#5786CA","koridor":"2Ar","halteId":"210"}},{"type":"Feature","geometry":{"type":"Point","coordinates":[106.862512,-6.172279]},"properties":{"title":"Pasar Cempaka Putih","marker-color":"#5786CA","koridor":"2Ar","halteId":"209"}},{"type":"Feature","geometry":{"type":"Point","coordinates":[106.866614,-6.170374]},"properties":{"title":"Cempaka Tengah","marker-color":"#5786CA","koridor":"2Ar","halteId":"208"}},{"type":"Feature","geometry":{"type":"Point","coordinates":[106.870417,-6.168593]},"properties":{"title":"RS Islam","marker-color":"#5786CA","koridor":"2Ar","halteId":"207"}},{"type":"Feature","geometry":{"type":"Point","coordinates":[106.876055,-6.166521]},"properties":{"title":"Cempaka Timur","marker-color":"#5786CA","koridor":"2Ar","halteId":"206"}},{"type":"Feature","geometry":{"type":"Point","coordinates":[106.882592,-6.167988]},"properties":{"title":"Pedongkelan","marker-color":"#5786CA","koridor":"2Ar","halteId":"205"}},{"type":"Feature","geometry":{"type":"Point","coordinates":[106.888752,-6.171762]},"properties":{"title":"ASMI","marker-color":"#5786CA","koridor":"2Ar","halteId":"204"}},{"type":"Feature","geometry":{"type":"Point","coordinates":[106.892724,-6.17472]},"properties":{"title":"Pulo Mas","marker-color":"#5786CA","koridor":"2Ar","halteId":"203"}},{"type":"Feature","geometry":{"type":"Point","coordinates":[106.898504,-6.178141]},"properties":{"title":"Bermis","marker-color":"#5786CA","koridor":"2Ar","halteId":"202"}},{"type":"Feature","geometry":{"type":"Point","coordinates":[106.90902,-6.183302]},"properties":{"title":"Pulo Gadung","marker-color":"#5786CA","koridor":"2Ar","halteId":"201"}},{"type":"Feature","geometry":{"type":"Point","coordinates":[106.705935,-6.154633]},"properties":{"title":"Kalideres","marker-color":"#F9C300","koridor":"3","halteId":"301"}},{"type":"Feature","geometry":{"type":"Point","coordinates":[106.71525,-6.15477]},"properties":{"title":"Pesakih","marker-color":"#F9C300","koridor":"3","halteId":"302"}},{"type":"Feature","geometry":{"type":"Point","coordinates":[106.71917,-6.15303]},"properties":{"title":"Sumur Bor","marker-color":"#F9C300","koridor":"3","halteId":"303"}},{"type":"Feature","geometry":{"type":"Point","coordinates":[106.726339,-6.153876]},"properties":{"title":"Rawa Buaya","marker-color":"#F9C300","koridor":"3","halteId":"304"}},{"type":"Feature","geometry":{"type":"Point","coordinates":[106.73053,-6.15485]},"properties":{"title":"Jembatan Bar","marker-color":"#F9C300","koridor":"3","halteId":"305"}},{"type":"Feature","geometry":{"type":"Point","coordinates":[106.738035,-6.154578]},"properties":{"title":"Dispenda Samsat Barat","marker-color":"#F9C300","koridor":"3","halteId":"306"}},{"type":"Feature","geometry":{"type":"Point","coordinates":[106.74926,-6.15547]},"properties":{"title":"Jembatan Gantung","marker-color":"#F9C300","koridor":"3","halteId":"307"}},{"type":"Feature","geometry":{"type":"Point","coordinates":[106.7579,-6.15717]},"properties":{"title":"Taman Kota","marker-color":"#F9C300","koridor":"3","halteId":"308"}},{"type":"Feature","geometry":{"type":"Point","coordinates":[106.77538,-6.16346]},"properties":{"title":"Indosiar","marker-color":"#F9C300","koridor":"3","halteId":"309"}},{"type":"Feature","geometry":{"type":"Point","coordinates":[106.786804,-6.166603]},"properties":{"title":"Jelambar","marker-color":"#F9C300","koridor":"3","halteId":"310"}},{"type":"Feature","geometry":{"type":"Point","coordinates":[106.789709,-6.16681]},"properties":{"title":"Grogol 1","marker-color":"#F9C300","koridor":"3","halteId":"311"}},{"type":"Feature","geometry":{"type":"Point","coordinates":[106.796938,-6.166256]},"properties":{"title":"RS Sumber Waras","marker-color":"#F9C300","koridor":"3","halteId":"312"}},{"type":"Feature","geometry":{"type":"Point","coordinates":[106.82043,-6.16582]},"properties":{"title":"Harmoni","marker-color":"#F9C300","koridor":"3","halteId":"313"}},{"type":"Feature","geometry":{"type":"Point","coordinates":[106.828138,-6.167661]},"properties":{"title":"Pecenongan","marker-color":"#F9C300","koridor":"3","halteId":"314"}},{"type":"Feature","geometry":{"type":"Point","coordinates":[106.830706,-6.168011]},"properties":{"title":"Juanda","marker-color":"#F9C300","koridor":"3","halteId":"315"}},{"type":"Feature","geometry":{"type":"Point","coordinates":[106.838177,-6.162464]},"properties":{"title":"Pasar Bar","marker-color":"#F9C300","koridor":"3","halteId":"316"}},{"type":"Feature","geometry":{"type":"Point","coordinates":[106.838177,-6.162464]},"properties":{"title":"Pasar Bar","marker-color":"#F9C300","koridor":"3r","halteId":"316"}},{"type":"Feature","geometry":{"type":"Point","coordinates":[106.830706,-6.168011]},"properties":{"title":"Juanda","marker-color":"#F9C300","koridor":"3r","halteId":"315"}},{"type":"Feature","geometry":{"type":"Point","coordinates":[106.828138,-6.167661]},"properties":{"title":"Pecenongan","marker-color":"#F9C300","koridor":"3r","halteId":"314"}},{"type":"Feature","geometry":{"type":"Point","coordinates":[106.82043,-6.16582]},"properties":{"title":"Harmoni","marker-color":"#F9C300","koridor":"3r","halteId":"313"}},{"type":"Feature","geometry":{"type":"Point","coordinates":[106.796938,-6.166256]},"properties":{"title":"RS Sumber Waras","marker-color":"#F9C300","koridor":"3r","halteId":"312"}},{"type":"Feature","geometry":{"type":"Point","coordinates":[106.789709,-6.16681]},"properties":{"title":"Grogol 1","marker-color":"#F9C300","koridor":"3r","halteId":"311"}},{"type":"Feature","geometry":{"type":"Point","coordinates":[106.786804,-6.166603]},"properties":{"title":"Jelambar","marker-color":"#F9C300","koridor":"3r","halteId":"310"}},{"type":"Feature","geometry":{"type":"Point","coordinates":[106.77538,-6.16346]},"properties":{"title":"Indosiar","marker-color":"#F9C300","koridor":"3r","halteId":"309"}},{"type":"Feature","geometry":{"type":"Point","coordinates":[106.7579,-6.15717]},"properties":{"title":"Taman Kota","marker-color":"#F9C300","koridor":"3r","halteId":"308"}},{"type":"Feature","geometry":{"type":"Point","coordinates":[106.74926,-6.15547]},"properties":{"title":"Jembatan Gantung","marker-color":"#F9C300","koridor":"3r","halteId":"307"}},{"type":"Feature","geometry":{"type":"Point","coordinates":[106.738035,-6.154578]},"properties":{"title":"Dispenda Samsat Barat","marker-color":"#F9C300","koridor":"3r","halteId":"306"}},{"type":"Feature","geometry":{"type":"Point","coordinates":[106.73053,-6.15485]},"properties":{"title":"Jembatan Bar","marker-color":"#F9C300","koridor":"3r","halteId":"305"}},{"type":"Feature","geometry":{"type":"Point","coordinates":[106.726339,-6.153876]},"properties":{"title":"Rawa Buaya","marker-color":"#F9C300","koridor":"3r","halteId":"304"}},{"type":"Feature","geometry":{"type":"Point","coordinates":[106.71917,-6.15303]},"properties":{"title":"Sumur Bor","marker-color":"#F9C300","koridor":"3r","halteId":"303"}},{"type":"Feature","geometry":{"type":"Point","coordinates":[106.71525,-6.15477]},"properties":{"title":"Pesakih","marker-color":"#F9C300","koridor":"3r","halteId":"302"}},{"type":"Feature","geometry":{"type":"Point","coordinates":[106.705935,-6.154633]},"properties":{"title":"Kalideres","marker-color":"#F9C300","koridor":"3r","halteId":"301"}},{"type":"Feature","geometry":{"type":"Point","coordinates":[106.705935,-6.154633]},"properties":{"title":"Kalideres","marker-color":"#4F008B","koridor":"3A","halteId":"301"}},{"type":"Feature","geometry":{"type":"Point","coordinates":[106.71525,-6.15477]},"properties":{"title":"Pesakih","marker-color":"#4F008B","koridor":"3A","halteId":"302"}},{"type":"Feature","geometry":{"type":"Point","coordinates":[106.71917,-6.15303]},"properties":{"title":"Sumur Bor","marker-color":"#4F008B","koridor":"3A","halteId":"303"}},{"type":"Feature","geometry":{"type":"Point","coordinates":[106.726339,-6.153876]},"properties":{"title":"Rawa Buaya","marker-color":"#4F008B","koridor":"3A","halteId":"304"}},{"type":"Feature","geometry":{"type":"Point","coordinates":[106.73053,-6.15485]},"properties":{"title":"Jembatan Bar","marker-color":"#4F008B","koridor":"3A","halteId":"305"}},{"type":"Feature","geometry":{"type":"Point","coordinates":[106.738035,-6.154578]},"properties":{"title":"Dispenda Samsat Barat","marker-color":"#4F008B","koridor":"3A","halteId":"306"}},{"type":"Feature","geometry":{"type":"Point","coordinates":[106.74926,-6.15547]},"properties":{"title":"Jembatan Gantung","marker-color":"#4F008B","koridor":"3A","halteId":"307"}},{"type":"Feature","geometry":{"type":"Point","coordinates":[106.7579,-6.15717]},"properties":{"title":"Taman Kota","marker-color":"#4F008B","koridor":"3A","halteId":"308"}},{"type":"Feature","geometry":{"type":"Point","coordinates":[106.77538,-6.16346]},"properties":{"title":"Indosiar","marker-color":"#4F008B","koridor":"3A","halteId":"309"}},{"type":"Feature","geometry":{"type":"Point","coordinates":[106.786804,-6.166603]},"properties":{"title":"Jelambar","marker-color":"#4F008B","koridor":"3A","halteId":"310"}},{"type":"Feature","geometry":{"type":"Point","coordinates":[106.789709,-6.16681]},"properties":{"title":"Grogol 1","marker-color":"#4F008B","koridor":"3A","halteId":"311"}},{"type":"Feature","geometry":{"type":"Point","coordinates":[106.796938,-6.166256]},"properties":{"title":"RS Sumber Waras","marker-color":"#4F008B","koridor":"3A","halteId":"312"}},{"type":"Feature","geometry":{"type":"Point","coordinates":[106.82043,-6.16582]},"properties":{"title":"Harmoni","marker-color":"#4F008B","koridor":"3A","halteId":"313"}},{"type":"Feature","geometry":{"type":"Point","coordinates":[106.822795,-6.175533]},"properties":{"title":"Monas","marker-color":"#4F008B","koridor":"3A","halteId":"114"}},{"type":"Feature","geometry":{"type":"Point","coordinates":[106.82296,-6.1827]},"properties":{"title":"Bank Indonesia","marker-color":"#4F008B","koridor":"3A","halteId":"113"}},{"type":"Feature","geometry":{"type":"Point","coordinates":[106.822993,-6.18797]},"properties":{"title":"Sarinah","marker-color":"#4F008B","koridor":"3A","halteId":"112"}},{"type":"Feature","geometry":{"type":"Point","coordinates":[106.823029,-6.19361]},"properties":{"title":"Bundaran HI","marker-color":"#4F008B","koridor":"3A","halteId":"111"}},{"type":"Feature","geometry":{"type":"Point","coordinates":[106.82312,-6.19864]},"properties":{"title":"Tosari ICBC","marker-color":"#4F008B","koridor":"3A","halteId":"110"}},{"type":"Feature","geometry":{"type":"Point","coordinates":[106.822255,-6.205641]},"properties":{"title":"Dukuh Atas 1","marker-color":"#4F008B","koridor":"3A","halteId":"109"}},{"type":"Feature","geometry":{"type":"Point","coordinates":[106.821215,-6.210182]},"properties":{"title":"Setiabudi","marker-color":"#4F008B","koridor":"3A","halteId":"108"}},{"type":"Feature","geometry":{"type":"Point","coordinates":[106.818265,-6.214742]},"properties":{"title":"Karet","marker-color":"#4F008B","koridor":"3A","halteId":"107"}},{"type":"Feature","geometry":{"type":"Point","coordinates":[106.81531,-6.217069]},"properties":{"title":"Bendungan Hilir","marker-color":"#4F008B","koridor":"3A","halteId":"106"}},{"type":"Feature","geometry":{"type":"Point","coordinates":[106.80967,-6.22151]},"properties":{"title":"Polda Metro Jaya","marker-color":"#4F008B","koridor":"3A","halteId":"105"}},{"type":"Feature","geometry":{"type":"Point","coordinates":[106.80582,-6.22418]},"properties":{"title":"Gelora Bung Karno","marker-color":"#4F008B","koridor":"3A","halteId":"104"}},{"type":"Feature","geometry":{"type":"Point","coordinates":[106.80141,-6.22748]},"properties":{"title":"Bundaran Senayan","marker-color":"#4F008B","koridor":"3A","halteId":"103"}},{"type":"Feature","geometry":{"type":"Point","coordinates":[106.80141,-6.22748]},"properties":{"title":"Bundaran Senayan","marker-color":"#4F008B","koridor":"3Ar","halteId":"103"}},{"type":"Feature","geometry":{"type":"Point","coordinates":[106.80582,-6.22418]},"properties":{"title":"Gelora Bung Karno","marker-color":"#4F008B","koridor":"3Ar","halteId":"104"}},{"type":"Feature","geometry":{"type":"Point","coordinates":[106.80967,-6.22151]},"properties":{"title":"Polda Metro Jaya","marker-color":"#4F008B","koridor":"3Ar","halteId":"105"}},{"type":"Feature","geometry":{"type":"Point","coordinates":[106.81531,-6.217069]},"properties":{"title":"Bendungan Hilir","marker-color":"#4F008B","koridor":"3Ar","halteId":"106"}},{"type":"Feature","geometry":{"type":"Point","coordinates":[106.818265,-6.214742]},"properties":{"title":"Karet","marker-color":"#4F008B","koridor":"3Ar","halteId":"107"}},{"type":"Feature","geometry":{"type":"Point","coordinates":[106.821215,-6.210182]},"properties":{"title":"Setiabudi","marker-color":"#4F008B","koridor":"3Ar","halteId":"108"}},{"type":"Feature","geometry":{"type":"Point","coordinates":[106.822255,-6.205641]},"properties":{"title":"Dukuh Atas 1","marker-color":"#4F008B","koridor":"3Ar","halteId":"109"}},{"type":"Feature","geometry":{"type":"Point","coordinates":[106.82312,-6.19864]},"properties":{"title":"Tosari ICBC","marker-color":"#4F008B","koridor":"3Ar","halteId":"110"}},{"type":"Feature","geometry":{"type":"Point","coordinates":[106.823029,-6.19361]},"properties":{"title":"Bundaran HI","marker-color":"#4F008B","koridor":"3Ar","halteId":"111"}},{"type":"Feature","geometry":{"type":"Point","coordinates":[106.822993,-6.18797]},"properties":{"title":"Sarinah","marker-color":"#4F008B","koridor":"3Ar","halteId":"112"}},{"type":"Feature","geometry":{"type":"Point","coordinates":[106.82296,-6.1827]},"properties":{"title":"Bank Indonesia","marker-color":"#4F008B","koridor":"3Ar","halteId":"113"}},{"type":"Feature","geometry":{"type":"Point","coordinates":[106.822795,-6.175533]},"properties":{"title":"Monas","marker-color":"#4F008B","koridor":"3Ar","halteId":"114"}},{"type":"Feature","geometry":{"type":"Point","coordinates":[106.82043,-6.16582]},"properties":{"title":"Harmoni","marker-color":"#4F008B","koridor":"3Ar","halteId":"313"}},{"type":"Feature","geometry":{"type":"Point","coordinates":[106.796938,-6.166256]},"properties":{"title":"RS Sumber Waras","marker-color":"#4F008B","koridor":"3Ar","halteId":"312"}},{"type":"Feature","geometry":{"type":"Point","coordinates":[106.789709,-6.16681]},"properties":{"title":"Grogol 1","marker-color":"#4F008B","koridor":"3Ar","halteId":"311"}},{"type":"Feature","geometry":{"type":"Point","coordinates":[106.786804,-6.166603]},"properties":{"title":"Jelambar","marker-color":"#4F008B","koridor":"3Ar","halteId":"310"}},{"type":"Feature","geometry":{"type":"Point","coordinates":[106.77538,-6.16346]},"properties":{"title":"Indosiar","marker-color":"#4F008B","koridor":"3Ar","halteId":"309"}},{"type":"Feature","geometry":{"type":"Point","coordinates":[106.7579,-6.15717]},"properties":{"title":"Taman Kota","marker-color":"#4F008B","koridor":"3Ar","halteId":"308"}},{"type":"Feature","geometry":{"type":"Point","coordinates":[106.74926,-6.15547]},"properties":{"title":"Jembatan Gantung","marker-color":"#4F008B","koridor":"3Ar","halteId":"307"}},{"type":"Feature","geometry":{"type":"Point","coordinates":[106.738035,-6.154578]},"properties":{"title":"Dispenda Samsat Barat","marker-color":"#4F008B","koridor":"3Ar","halteId":"306"}},{"type":"Feature","geometry":{"type":"Point","coordinates":[106.73053,-6.15485]},"properties":{"title":"Jembatan Bar","marker-color":"#4F008B","koridor":"3Ar","halteId":"305"}},{"type":"Feature","geometry":{"type":"Point","coordinates":[106.726339,-6.153876]},"properties":{"title":"Rawa Buaya","marker-color":"#4F008B","koridor":"3Ar","halteId":"304"}},{"type":"Feature","geometry":{"type":"Point","coordinates":[106.71917,-6.15303]},"properties":{"title":"Sumur Bor","marker-color":"#4F008B","koridor":"3Ar","halteId":"303"}},{"type":"Feature","geometry":{"type":"Point","coordinates":[106.71525,-6.15477]},"properties":{"title":"Pesakih","marker-color":"#4F008B","koridor":"3Ar","halteId":"302"}},{"type":"Feature","geometry":{"type":"Point","coordinates":[106.705935,-6.154633]},"properties":{"title":"Kalideres","marker-color":"#4F008B","koridor":"3Ar","halteId":"301"}},{"type":"Feature","geometry":{"type":"Point","coordinates":[106.90902,-6.183302]},"properties":{"title":"Pulo Gadung","marker-color":"#410052","koridor":"4","halteId":"401"}},{"type":"Feature","geometry":{"type":"Point","coordinates":[106.905934,-6.187409]},"properties":{"title":"Pasar Pulogadung","marker-color":"#410052","koridor":"4","halteId":"402"}},{"type":"Feature","geometry":{"type":"Point","coordinates":[106.904992,-6.192333]},"properties":{"title":"TU Gas","marker-color":"#410052","koridor":"4","halteId":"403"}},{"type":"Feature","geometry":{"type":"Point","coordinates":[106.89902,-6.19349]},"properties":{"title":"Layur","marker-color":"#410052","koridor":"4","halteId":"404"}},{"type":"Feature","geometry":{"type":"Point","coordinates":[106.89167,-6.19346]},"properties":{"title":"Pemuda Rawamangun","marker-color":"#410052","koridor":"4","halteId":"405"}},{"type":"Feature","geometry":{"type":"Point","coordinates":[106.88818,-6.19341]},"properties":{"title":"Velodrome","marker-color":"#410052","koridor":"4","halteId":"406"}},{"type":"Feature","geometry":{"type":"Point","coordinates":[106.88367,-6.19323]},"properties":{"title":"Sunan Giri","marker-color":"#410052","koridor":"4","halteId":"407"}},{"type":"Feature","geometry":{"type":"Point","coordinates":[106.880197,-6.192865]},"properties":{"title":"UNJ","marker-color":"#410052","koridor":"4","halteId":"408"}},{"type":"Feature","geometry":{"type":"Point","coordinates":[106.874021,-6.192144]},"properties":{"title":"Pramuka BPKP","marker-color":"#410052","koridor":"4","halteId":"409"}},{"type":"Feature","geometry":{"type":"Point","coordinates":[106.86857,-6.19218]},"properties":{"title":"Pramuka LIA","marker-color":"#410052","koridor":"4","halteId":"410"}},{"type":"Feature","geometry":{"type":"Point","coordinates":[106.864599,-6.192719]},"properties":{"title":"Utan Kay","marker-color":"#410052","koridor":"4","halteId":"411"}},{"type":"Feature","geometry":{"type":"Point","coordinates":[106.860915,-6.194436]},"properties":{"title":"Pasar Genjing","marker-color":"#410052","koridor":"4","halteId":"412"}},{"type":"Feature","geometry":{"type":"Point","coordinates":[106.854334,-6.19914]},"properties":{"title":"Matraman 2","marker-color":"#410052","koridor":"4","halteId":"413"}},{"type":"Feature","geometry":{"type":"Point","coordinates":[106.847479,-6.20896]},"properties":{"title":"Manggarai","marker-color":"#410052","koridor":"4","halteId":"414"}},{"type":"Feature","geometry":{"type":"Point","coordinates":[106.84104,-6.20709]},"properties":{"title":"Pasar Rumput","marker-color":"#410052","koridor":"4","halteId":"415"}},{"type":"Feature","geometry":{"type":"Point","coordinates":[106.8334,-6.20511]},"properties":{"title":"Halimun","marker-color":"#410052","koridor":"4","halteId":"416"}},{"type":"Feature","geometry":{"type":"Point","coordinates":[106.823473,-6.204296]},"properties":{"title":"Dukuh Atas 2","marker-color":"#410052","koridor":"4","halteId":"417"}},{"type":"Feature","geometry":{"type":"Point","coordinates":[106.823473,-6.204296]},"properties":{"title":"Dukuh Atas 2","marker-color":"#410052","koridor":"4r","halteId":"417"}},{"type":"Feature","geometry":{"type":"Point","coordinates":[106.8334,-6.20511]},"properties":{"title":"Halimun","marker-color":"#410052","koridor":"4r","halteId":"416"}},{"type":"Feature","geometry":{"type":"Point","coordinates":[106.84104,-6.20709]},"properties":{"title":"Pasar Rumput","marker-color":"#410052","koridor":"4r","halteId":"415"}},{"type":"Feature","geometry":{"type":"Point","coordinates":[106.847479,-6.20896]},"properties":{"title":"Manggarai","marker-color":"#410052","koridor":"4r","halteId":"414"}},{"type":"Feature","geometry":{"type":"Point","coordinates":[106.854334,-6.19914]},"properties":{"title":"Matraman 2","marker-color":"#410052","koridor":"4r","halteId":"413"}},{"type":"Feature","geometry":{"type":"Point","coordinates":[106.860915,-6.194436]},"properties":{"title":"Pasar Genjing","marker-color":"#410052","koridor":"4r","halteId":"412"}},{"type":"Feature","geometry":{"type":"Point","coordinates":[106.864599,-6.192719]},"properties":{"title":"Utan Kay","marker-color":"#410052","koridor":"4r","halteId":"411"}},{"type":"Feature","geometry":{"type":"Point","coordinates":[106.86857,-6.19218]},"properties":{"title":"Pramuka LIA","marker-color":"#410052","koridor":"4r","halteId":"410"}},{"type":"Feature","geometry":{"type":"Point","coordinates":[106.874021,-6.192144]},"properties":{"title":"Pramuka BPKP","marker-color":"#410052","koridor":"4r","halteId":"409"}},{"type":"Feature","geometry":{"type":"Point","coordinates":[106.880197,-6.192865]},"properties":{"title":"UNJ","marker-color":"#410052","koridor":"4r","halteId":"408"}},{"type":"Feature","geometry":{"type":"Point","coordinates":[106.88367,-6.19323]},"properties":{"title":"Sunan Giri","marker-color":"#410052","koridor":"4r","halteId":"407"}},{"type":"Feature","geometry":{"type":"Point","coordinates":[106.88818,-6.19341]},"properties":{"title":"Velodrome","marker-color":"#410052","koridor":"4r","halteId":"406"}},{"type":"Feature","geometry":{"type":"Point","coordinates":[106.89167,-6.19346]},"properties":{"title":"Pemuda Rawamangun","marker-color":"#410052","koridor":"4r","halteId":"405"}},{"type":"Feature","geometry":{"type":"Point","coordinates":[106.89902,-6.19349]},"properties":{"title":"Layur","marker-color":"#410052","koridor":"4r","halteId":"404"}},{"type":"Feature","geometry":{"type":"Point","coordinates":[106.904992,-6.192333]},"properties":{"title":"TU Gas","marker-color":"#410052","koridor":"4r","halteId":"403"}},{"type":"Feature","geometry":{"type":"Point","coordinates":[106.905934,-6.187409]},"properties":{"title":"Pasar Pulogadung","marker-color":"#410052","koridor":"4r","halteId":"402"}},{"type":"Feature","geometry":{"type":"Point","coordinates":[106.90902,-6.183302]},"properties":{"title":"Pulo Gadung","marker-color":"#410052","koridor":"4r","halteId":"401"}},{"type":"Feature","geometry":{"type":"Point","coordinates":[106.830415,-6.127541]},"properties":{"title":"Ancol","marker-color":"#C14200","koridor":"5","halteId":"501"}},{"type":"Feature","geometry":{"type":"Point","coordinates":[106.83163,-6.133655]},"properties":{"title":"Pademangan","marker-color":"#C14200","koridor":"5","halteId":"502"}},{"type":"Feature","geometry":{"type":"Point","coordinates":[106.83247,-6.1372]},"properties":{"title":"Gunung. Sahari Mangga Dua","marker-color":"#C14200","koridor":"5","halteId":"503"}},{"type":"Feature","geometry":{"type":"Point","coordinates":[106.83429,-6.14678]},"properties":{"title":"Jembatan Merah","marker-color":"#C14200","koridor":"5","halteId":"504"}},{"type":"Feature","geometry":{"type":"Point","coordinates":[106.83818,-6.16245]},"properties":{"title":"Pasar Baru Timur","marker-color":"#C14200","koridor":"5","halteId":"505"}},{"type":"Feature","geometry":{"type":"Point","coordinates":[106.839077,-6.165981]},"properties":{"title":"Budi Utomo","marker-color":"#C14200","koridor":"5","halteId":"506"}},{"type":"Feature","geometry":{"type":"Point","coordinates":[106.842072,-6.178093]},"properties":{"title":"Senen Sentral","marker-color":"#C14200","koridor":"5","halteId":"507"}},{"type":"Feature","geometry":{"type":"Point","coordinates":[106.84388,-6.18442]},"properties":{"title":"Pal Putih","marker-color":"#C14200","koridor":"5","halteId":"508"}},{"type":"Feature","geometry":{"type":"Point","coordinates":[106.84605,-6.18818]},"properties":{"title":"Kramat Sentiong NU","marker-color":"#C14200","koridor":"5","halteId":"509"}},{"type":"Feature","geometry":{"type":"Point","coordinates":[106.84903,-6.19364]},"properties":{"title":"Salemba UI","marker-color":"#C14200","koridor":"5","halteId":"510"}},{"type":"Feature","geometry":{"type":"Point","coordinates":[106.851111,-6.196844]},"properties":{"title":"Salemba Carolus","marker-color":"#C14200","koridor":"5","halteId":"511"}},{"type":"Feature","geometry":{"type":"Point","coordinates":[106.854472,-6.20006]},"properties":{"title":"Matraman 1","marker-color":"#C14200","koridor":"5","halteId":"512"}},{"type":"Feature","geometry":{"type":"Point","coordinates":[106.85705,-6.20295]},"properties":{"title":"Tegalan","marker-color":"#C14200","koridor":"5","halteId":"513"}},{"type":"Feature","geometry":{"type":"Point","coordinates":[106.85924,-6.20856]},"properties":{"title":"Slamet Riyadi","marker-color":"#C14200","koridor":"5","halteId":"514"}},{"type":"Feature","geometry":{"type":"Point","coordinates":[106.861284,-6.213178]},"properties":{"title":"Kebon Pala","marker-color":"#C14200","koridor":"5","halteId":"515"}},{"type":"Feature","geometry":{"type":"Point","coordinates":[106.86627,-6.21565]},"properties":{"title":"Pasar Jatinegara","marker-color":"#C14200","koridor":"5","halteId":"516"}},{"type":"Feature","geometry":{"type":"Point","coordinates":[106.868004,-6.221811]},"properties":{"title":"Jatinegara RS. Premier","marker-color":"#C14200","koridor":"5","halteId":"517"}},{"type":"Feature","geometry":{"type":"Point","coordinates":[106.866592,-6.22491]},"properties":{"title":"Kampung Melayu","marker-color":"#C14200","koridor":"5","halteId":"518"}},{"type":"Feature","geometry":{"type":"Point","coordinates":[106.866592,-6.22491]},"properties":{"title":"Kampung Melayu","marker-color":"#C14200","koridor":"5r","halteId":"518"}},{"type":"Feature","geometry":{"type":"Point","coordinates":[106.868004,-6.221811]},"properties":{"title":"Jatinegara RS. Premier","marker-color":"#C14200","koridor":"5r","halteId":"517"}},{"type":"Feature","geometry":{"type":"Point","coordinates":[106.86627,-6.21565]},"properties":{"title":"Pasar Jatinegara","marker-color":"#C14200","koridor":"5r","halteId":"516"}},{"type":"Feature","geometry":{"type":"Point","coordinates":[106.861284,-6.213178]},"properties":{"title":"Kebon Pala","marker-color":"#C14200","koridor":"5r","halteId":"515"}},{"type":"Feature","geometry":{"type":"Point","coordinates":[106.85924,-6.20856]},"properties":{"title":"Slamet Riyadi","marker-color":"#C14200","koridor":"5r","halteId":"514"}},{"type":"Feature","geometry":{"type":"Point","coordinates":[106.85705,-6.20295]},"properties":{"title":"Tegalan","marker-color":"#C14200","koridor":"5r","halteId":"513"}},{"type":"Feature","geometry":{"type":"Point","coordinates":[106.854472,-6.20006]},"properties":{"title":"Matraman 1","marker-color":"#C14200","koridor":"5r","halteId":"512"}},{"type":"Feature","geometry":{"type":"Point","coordinates":[106.851111,-6.196844]},"properties":{"title":"Salemba Carolus","marker-color":"#C14200","koridor":"5r","halteId":"511"}},{"type":"Feature","geometry":{"type":"Point","coordinates":[106.84903,-6.19364]},"properties":{"title":"Salemba UI","marker-color":"#C14200","koridor":"5r","halteId":"510"}},{"type":"Feature","geometry":{"type":"Point","coordinates":[106.84605,-6.18818]},"properties":{"title":"Kramat Sentiong NU","marker-color":"#C14200","koridor":"5r","halteId":"509"}},{"type":"Feature","geometry":{"type":"Point","coordinates":[106.84388,-6.18442]},"properties":{"title":"Pal Putih","marker-color":"#C14200","koridor":"5r","halteId":"508"}},{"type":"Feature","geometry":{"type":"Point","coordinates":[106.842072,-6.178093]},"properties":{"title":"Senen Sentral","marker-color":"#C14200","koridor":"5r","halteId":"507"}},{"type":"Feature","geometry":{"type":"Point","coordinates":[106.839077,-6.165981]},"properties":{"title":"Budi Utomo","marker-color":"#C14200","koridor":"5r","halteId":"506"}},{"type":"Feature","geometry":{"type":"Point","coordinates":[106.83818,-6.16245]},"properties":{"title":"Pasar Baru Timur","marker-color":"#C14200","koridor":"5r","halteId":"505"}},{"type":"Feature","geometry":{"type":"Point","coordinates":[106.83429,-6.14678]},"properties":{"title":"Jembatan Merah","marker-color":"#C14200","koridor":"5r","halteId":"504"}},{"type":"Feature","geometry":{"type":"Point","coordinates":[106.83247,-6.1372]},"properties":{"title":"Gunung. Sahari Mangga Dua","marker-color":"#C14200","koridor":"5r","halteId":"503"}},{"type":"Feature","geometry":{"type":"Point","coordinates":[106.83163,-6.133655]},"properties":{"title":"Pademangan","marker-color":"#C14200","koridor":"5r","halteId":"502"}},{"type":"Feature","geometry":{"type":"Point","coordinates":[106.830415,-6.127541]},"properties":{"title":"Ancol","marker-color":"#C14200","koridor":"5r","halteId":"501"}},{"type":"Feature","geometry":{"type":"Point","coordinates":[106.830415,-6.127541]},"properties":{"title":"Ancol","marker-color":"#B4C278","koridor":"5A","halteId":"501"}},{"type":"Feature","geometry":{"type":"Point","coordinates":[106.83163,-6.133655]},"properties":{"title":"Pademangan","marker-color":"#B4C278","koridor":"5A","halteId":"502"}},{"type":"Feature","geometry":{"type":"Point","coordinates":[106.83247,-6.1372]},"properties":{"title":"Gunung. Sahari Mangga Dua","marker-color":"#B4C278","koridor":"5A","halteId":"503"}},{"type":"Feature","geometry":{"type":"Point","coordinates":[106.83429,-6.14678]},"properties":{"title":"Jembatan Merah","marker-color":"#B4C278","koridor":"5A","halteId":"504"}},{"type":"Feature","geometry":{"type":"Point","coordinates":[106.830706,-6.168011]},"properties":{"title":"Juanda","marker-color":"#B4C278","koridor":"5A","halteId":"218"}},{"type":"Feature","geometry":{"type":"Point","coordinates":[106.828138,-6.167661]},"properties":{"title":"Pecenongan","marker-color":"#B4C278","koridor":"5A","halteId":"219"}},{"type":"Feature","geometry":{"type":"Point","coordinates":[106.82043,-6.16582]},"properties":{"title":"Harmoni","marker-color":"#B4C278","koridor":"5A","halteId":"220"}},{"type":"Feature","geometry":{"type":"Point","coordinates":[106.82043,-6.16582]},"properties":{"title":"Harmoni","marker-color":"#B4C278","koridor":"5Ar","halteId":"220"}},{"type":"Feature","geometry":{"type":"Point","coordinates":[106.828138,-6.167661]},"properties":{"title":"Pecenongan","marker-color":"#B4C278","koridor":"5Ar","halteId":"219"}},{"type":"Feature","geometry":{"type":"Point","coordinates":[106.830706,-6.168011]},"properties":{"title":"Juanda","marker-color":"#B4C278","koridor":"5Ar","halteId":"218"}},{"type":"Feature","geometry":{"type":"Point","coordinates":[106.838177,-6.162464]},"properties":{"title":"Pasar Bar","marker-color":"#B4C278","koridor":"5Ar","halteId":"316"}},{"type":"Feature","geometry":{"type":"Point","coordinates":[106.83818,-6.16245]},"properties":{"title":"Pasar Baru Timur","marker-color":"#B4C278","koridor":"5Ar","halteId":"505"}},{"type":"Feature","geometry":{"type":"Point","coordinates":[106.83429,-6.14678]},"properties":{"title":"Jembatan Merah","marker-color":"#B4C278","koridor":"5Ar","halteId":"504"}},{"type":"Feature","geometry":{"type":"Point","coordinates":[106.83247,-6.1372]},"properties":{"title":"Gunung. Sahari Mangga Dua","marker-color":"#B4C278","koridor":"5Ar","halteId":"503"}},{"type":"Feature","geometry":{"type":"Point","coordinates":[106.83163,-6.133655]},"properties":{"title":"Pademangan","marker-color":"#B4C278","koridor":"5Ar","halteId":"502"}},{"type":"Feature","geometry":{"type":"Point","coordinates":[106.830415,-6.127541]},"properties":{"title":"Ancol","marker-color":"#B4C278","koridor":"5Ar","halteId":"501"}},{"type":"Feature","geometry":{"type":"Point","coordinates":[106.820498,-6.304989]},"properties":{"title":"Ragunan","marker-color":"#009900","koridor":"6","halteId":"601"}},{"type":"Feature","geometry":{"type":"Point","coordinates":[106.82217,-6.29447]},"properties":{"title":"Departemen Pertanian","marker-color":"#009900","koridor":"6","halteId":"602"}},{"type":"Feature","geometry":{"type":"Point","coordinates":[106.82354,-6.29122]},"properties":{"title":"SMK 57","marker-color":"#009900","koridor":"6","halteId":"603"}},{"type":"Feature","geometry":{"type":"Point","coordinates":[106.82623,-6.285506]},"properties":{"title":"Jati Padang","marker-color":"#009900","koridor":"6","halteId":"604"}},{"type":"Feature","geometry":{"type":"Point","coordinates":[106.82979,-6.27831]},"properties":{"title":"Pejaten","marker-color":"#009900","koridor":"6","halteId":"605"}},{"type":"Feature","geometry":{"type":"Point","coordinates":[106.8303,-6.27441]},"properties":{"title":"Buncit Indah","marker-color":"#009900","koridor":"6","halteId":"606"}},{"type":"Feature","geometry":{"type":"Point","coordinates":[106.82966,-6.26225]},"properties":{"title":"Warung Jati","marker-color":"#009900","koridor":"6","halteId":"607"}},{"type":"Feature","geometry":{"type":"Point","coordinates":[106.82799,-6.25671]},"properties":{"title":"Imigrasi Jakarta Selatan","marker-color":"#009900","koridor":"6","halteId":"608"}},{"type":"Feature","geometry":{"type":"Point","coordinates":[106.82693,-6.25233]},"properties":{"title":"Duren Tiga","marker-color":"#009900","koridor":"6","halteId":"609"}},{"type":"Feature","geometry":{"type":"Point","coordinates":[106.825698,-6.241746]},"properties":{"title":"Mampang Prapatan","marker-color":"#009900","koridor":"6","halteId":"610"}},{"type":"Feature","geometry":{"type":"Point","coordinates":[106.828131,-6.235824]},"properties":{"title":"Kuningan Timur","marker-color":"#009900","koridor":"6","halteId":"611"}},{"type":"Feature","geometry":{"type":"Point","coordinates":[106.831302,-6.233519]},"properties":{"title":"Patra Kuningan","marker-color":"#009900","koridor":"6","halteId":"612"}},{"type":"Feature","geometry":{"type":"Point","coordinates":[106.83319,-6.22856]},"properties":{"title":"Departemen Kesehatan","marker-color":"#009900","koridor":"6","halteId":"613"}},{"type":"Feature","geometry":{"type":"Point","coordinates":[106.832186,-6.22086]},"properties":{"title":"GOR Sumantri","marker-color":"#009900","koridor":"6","halteId":"614"}},{"type":"Feature","geometry":{"type":"Point","coordinates":[106.830914,-6.217276]},"properties":{"title":"Karet Kuningan","marker-color":"#009900","koridor":"6","halteId":"615"}},{"type":"Feature","geometry":{"type":"Point","coordinates":[106.83091,-6.212831]},"properties":{"title":"Kuningan Madya","marker-color":"#009900","koridor":"6","halteId":"616"}},{"type":"Feature","geometry":{"type":"Point","coordinates":[106.82983,-6.20801]},"properties":{"title":"Setiabudi Utara Aini","marker-color":"#009900","koridor":"6","halteId":"617"}},{"type":"Feature","geometry":{"type":"Point","coordinates":[106.827771,-6.20322]},"properties":{"title":"Latuharhari","marker-color":"#009900","koridor":"6","halteId":"618"}},{"type":"Feature","geometry":{"type":"Point","coordinates":[106.8334,-6.20511]},"properties":{"title":"Halimun","marker-color":"#009900","koridor":"6","halteId":"619"}},{"type":"Feature","geometry":{"type":"Point","coordinates":[106.823473,-6.204296]},"properties":{"title":"Dukuh Atas 2","marker-color":"#009900","koridor":"6","halteId":"620"}},{"type":"Feature","geometry":{"type":"Point","coordinates":[106.823473,-6.204296]},"properties":{"title":"Dukuh Atas 2","marker-color":"#009900","koridor":"6r","halteId":"620"}},{"type":"Feature","geometry":{"type":"Point","coordinates":[106.827771,-6.20322]},"properties":{"title":"Latuharhari","marker-color":"#009900","koridor":"6r","halteId":"618"}},{"type":"Feature","geometry":{"type":"Point","coordinates":[106.8334,-6.20511]},"properties":{"title":"Halimun","marker-color":"#009900","koridor":"6r","halteId":"619"}},{"type":"Feature","geometry":{"type":"Point","coordinates":[106.82983,-6.20801]},"properties":{"title":"Setiabudi Utara Aini","marker-color":"#009900","koridor":"6r","halteId":"617"}},{"type":"Feature","geometry":{"type":"Point","coordinates":[106.83091,-6.212831]},"properties":{"title":"Kuningan Madya","marker-color":"#009900","koridor":"6r","halteId":"616"}},{"type":"Feature","geometry":{"type":"Point","coordinates":[106.830914,-6.217276]},"properties":{"title":"Karet Kuningan","marker-color":"#009900","koridor":"6r","halteId":"615"}},{"type":"Feature","geometry":{"type":"Point","coordinates":[106.832186,-6.22086]},"properties":{"title":"GOR Sumantri","marker-color":"#009900","koridor":"6r","halteId":"614"}},{"type":"Feature","geometry":{"type":"Point","coordinates":[106.83319,-6.22856]},"properties":{"title":"Departemen Kesehatan","marker-color":"#009900","koridor":"6r","halteId":"613"}},{"type":"Feature","geometry":{"type":"Point","coordinates":[106.831302,-6.233519]},"properties":{"title":"Patra Kuningan","marker-color":"#009900","koridor":"6r","halteId":"612"}},{"type":"Feature","geometry":{"type":"Point","coordinates":[106.828131,-6.235824]},"properties":{"title":"Kuningan Timur","marker-color":"#009900","koridor":"6r","halteId":"611"}},{"type":"Feature","geometry":{"type":"Point","coordinates":[106.825698,-6.241746]},"properties":{"title":"Mampang Prapatan","marker-color":"#009900","koridor":"6r","halteId":"610"}},{"type":"Feature","geometry":{"type":"Point","coordinates":[106.82693,-6.25233]},"properties":{"title":"Duren Tiga","marker-color":"#009900","koridor":"6r","halteId":"609"}},{"type":"Feature","geometry":{"type":"Point","coordinates":[106.82799,-6.25671]},"properties":{"title":"Imigrasi Jakarta Selatan","marker-color":"#009900","koridor":"6r","halteId":"608"}},{"type":"Feature","geometry":{"type":"Point","coordinates":[106.82966,-6.26225]},"properties":{"title":"Warung Jati","marker-color":"#009900","koridor":"6r","halteId":"607"}},{"type":"Feature","geometry":{"type":"Point","coordinates":[106.8303,-6.27441]},"properties":{"title":"Buncit Indah","marker-color":"#009900","koridor":"6r","halteId":"606"}},{"type":"Feature","geometry":{"type":"Point","coordinates":[106.82979,-6.27831]},"properties":{"title":"Pejaten","marker-color":"#009900","koridor":"6r","halteId":"605"}},{"type":"Feature","geometry":{"type":"Point","coordinates":[106.82623,-6.285506]},"properties":{"title":"Jati Padang","marker-color":"#009900","koridor":"6r","halteId":"604"}},{"type":"Feature","geometry":{"type":"Point","coordinates":[106.82354,-6.29122]},"properties":{"title":"SMK 57","marker-color":"#009900","koridor":"6r","halteId":"603"}},{"type":"Feature","geometry":{"type":"Point","coordinates":[106.82217,-6.29447]},"properties":{"title":"Departemen Pertanian","marker-color":"#009900","koridor":"6r","halteId":"602"}},{"type":"Feature","geometry":{"type":"Point","coordinates":[106.820498,-6.304989]},"properties":{"title":"Ragunan","marker-color":"#009900","koridor":"6r","halteId":"601"}},{"type":"Feature","geometry":{"type":"Point","coordinates":[106.820498,-6.304989]},"properties":{"title":"Ragunan","marker-color":"#4EC481","koridor":"6A","halteId":"601"}},{"type":"Feature","geometry":{"type":"Point","coordinates":[106.82217,-6.29447]},"properties":{"title":"Departemen Pertanian","marker-color":"#4EC481","koridor":"6A","halteId":"602"}},{"type":"Feature","geometry":{"type":"Point","coordinates":[106.82354,-6.29122]},"properties":{"title":"SMK 57","marker-color":"#4EC481","koridor":"6A","halteId":"603"}},{"type":"Feature","geometry":{"type":"Point","coordinates":[106.82623,-6.285506]},"properties":{"title":"Jati Padang","marker-color":"#4EC481","koridor":"6A","halteId":"604"}},{"type":"Feature","geometry":{"type":"Point","coordinates":[106.82979,-6.27831]},"properties":{"title":"Pejaten","marker-color":"#4EC481","koridor":"6A","halteId":"605"}},{"type":"Feature","geometry":{"type":"Point","coordinates":[106.8303,-6.27441]},"properties":{"title":"Buncit Indah","marker-color":"#4EC481","koridor":"6A","halteId":"606"}},{"type":"Feature","geometry":{"type":"Point","coordinates":[106.82966,-6.26225]},"properties":{"title":"Warung Jati","marker-color":"#4EC481","koridor":"6A","halteId":"607"}},{"type":"Feature","geometry":{"type":"Point","coordinates":[106.82799,-6.25671]},"properties":{"title":"Imigrasi Jakarta Selatan","marker-color":"#4EC481","koridor":"6A","halteId":"608"}},{"type":"Feature","geometry":{"type":"Point","coordinates":[106.82693,-6.25233]},"properties":{"title":"Duren Tiga","marker-color":"#4EC481","koridor":"6A","halteId":"609"}},{"type":"Feature","geometry":{"type":"Point","coordinates":[106.825698,-6.241746]},"properties":{"title":"Mampang Prapatan","marker-color":"#4EC481","koridor":"6A","halteId":"610"}},{"type":"Feature","geometry":{"type":"Point","coordinates":[106.828131,-6.235824]},"properties":{"title":"Kuningan Timur","marker-color":"#4EC481","koridor":"6A","halteId":"611"}},{"type":"Feature","geometry":{"type":"Point","coordinates":[106.831302,-6.233519]},"properties":{"title":"Patra Kuningan","marker-color":"#4EC481","koridor":"6A","halteId":"612"}},{"type":"Feature","geometry":{"type":"Point","coordinates":[106.83319,-6.22856]},"properties":{"title":"Departemen Kesehatan","marker-color":"#4EC481","koridor":"6A","halteId":"613"}},{"type":"Feature","geometry":{"type":"Point","coordinates":[106.832186,-6.22086]},"properties":{"title":"GOR Sumantri","marker-color":"#4EC481","koridor":"6A","halteId":"614"}},{"type":"Feature","geometry":{"type":"Point","coordinates":[106.830914,-6.217276]},"properties":{"title":"Karet Kuningan","marker-color":"#4EC481","koridor":"6A","halteId":"615"}},{"type":"Feature","geometry":{"type":"Point","coordinates":[106.83091,-6.212831]},"properties":{"title":"Kuningan Madya","marker-color":"#4EC481","koridor":"6A","halteId":"616"}},{"type":"Feature","geometry":{"type":"Point","coordinates":[106.82983,-6.20801]},"properties":{"title":"Setiabudi Utara Aini","marker-color":"#4EC481","koridor":"6A","halteId":"617"}},{"type":"Feature","geometry":{"type":"Point","coordinates":[106.823029,-6.19361]},"properties":{"title":"Bundaran HI","marker-color":"#4EC481","koridor":"6A","halteId":"111"}},{"type":"Feature","geometry":{"type":"Point","coordinates":[106.822993,-6.18797]},"properties":{"title":"Sarinah","marker-color":"#4EC481","koridor":"6A","halteId":"112"}},{"type":"Feature","geometry":{"type":"Point","coordinates":[106.82296,-6.1827]},"properties":{"title":"Bank Indonesia","marker-color":"#4EC481","koridor":"6A","halteId":"113"}},{"type":"Feature","geometry":{"type":"Point","coordinates":[106.822795,-6.175533]},"properties":{"title":"Monas","marker-color":"#4EC481","koridor":"6A","halteId":"114"}},{"type":"Feature","geometry":{"type":"Point","coordinates":[106.822795,-6.175533]},"properties":{"title":"Monas","marker-color":"#4EC481","koridor":"6Ar","halteId":"114"}},{"type":"Feature","geometry":{"type":"Point","coordinates":[106.82296,-6.1827]},"properties":{"title":"Bank Indonesia","marker-color":"#4EC481","koridor":"6Ar","halteId":"113"}},{"type":"Feature","geometry":{"type":"Point","coordinates":[106.822993,-6.18797]},"properties":{"title":"Sarinah","marker-color":"#4EC481","koridor":"6Ar","halteId":"112"}},{"type":"Feature","geometry":{"type":"Point","coordinates":[106.823029,-6.19361]},"properties":{"title":"Bundaran HI","marker-color":"#4EC481","koridor":"6Ar","halteId":"111"}},{"type":"Feature","geometry":{"type":"Point","coordinates":[106.82983,-6.20801]},"properties":{"title":"Setiabudi Utara Aini","marker-color":"#4EC481","koridor":"6Ar","halteId":"617"}},{"type":"Feature","geometry":{"type":"Point","coordinates":[106.83091,-6.212831]},"properties":{"title":"Kuningan Madya","marker-color":"#4EC481","koridor":"6Ar","halteId":"616"}},{"type":"Feature","geometry":{"type":"Point","coordinates":[106.830914,-6.217276]},"properties":{"title":"Karet Kuningan","marker-color":"#4EC481","koridor":"6Ar","halteId":"615"}},{"type":"Feature","geometry":{"type":"Point","coordinates":[106.832186,-6.22086]},"properties":{"title":"GOR Sumantri","marker-color":"#4EC481","koridor":"6Ar","halteId":"614"}},{"type":"Feature","geometry":{"type":"Point","coordinates":[106.83319,-6.22856]},"properties":{"title":"Departemen Kesehatan","marker-color":"#4EC481","koridor":"6Ar","halteId":"613"}},{"type":"Feature","geometry":{"type":"Point","coordinates":[106.831302,-6.233519]},"properties":{"title":"Patra Kuningan","marker-color":"#4EC481","koridor":"6Ar","halteId":"612"}},{"type":"Feature","geometry":{"type":"Point","coordinates":[106.828131,-6.235824]},"properties":{"title":"Kuningan Timur","marker-color":"#4EC481","koridor":"6Ar","halteId":"611"}},{"type":"Feature","geometry":{"type":"Point","coordinates":[106.825698,-6.241746]},"properties":{"title":"Mampang Prapatan","marker-color":"#4EC481","koridor":"6Ar","halteId":"610"}},{"type":"Feature","geometry":{"type":"Point","coordinates":[106.82693,-6.25233]},"properties":{"title":"Duren Tiga","marker-color":"#4EC481","koridor":"6Ar","halteId":"609"}},{"type":"Feature","geometry":{"type":"Point","coordinates":[106.82799,-6.25671]},"properties":{"title":"Imigrasi Jakarta Selatan","marker-color":"#4EC481","koridor":"6Ar","halteId":"608"}},{"type":"Feature","geometry":{"type":"Point","coordinates":[106.82966,-6.26225]},"properties":{"title":"Warung Jati","marker-color":"#4EC481","koridor":"6Ar","halteId":"607"}},{"type":"Feature","geometry":{"type":"Point","coordinates":[106.8303,-6.27441]},"properties":{"title":"Buncit Indah","marker-color":"#4EC481","koridor":"6Ar","halteId":"606"}},{"type":"Feature","geometry":{"type":"Point","coordinates":[106.82979,-6.27831]},"properties":{"title":"Pejaten","marker-color":"#4EC481","koridor":"6Ar","halteId":"605"}},{"type":"Feature","geometry":{"type":"Point","coordinates":[106.82623,-6.285506]},"properties":{"title":"Jati Padang","marker-color":"#4EC481","koridor":"6Ar","halteId":"604"}},{"type":"Feature","geometry":{"type":"Point","coordinates":[106.82354,-6.29122]},"properties":{"title":"SMK 57","marker-color":"#4EC481","koridor":"6Ar","halteId":"603"}},{"type":"Feature","geometry":{"type":"Point","coordinates":[106.82217,-6.29447]},"properties":{"title":"Departemen Pertanian","marker-color":"#4EC481","koridor":"6Ar","halteId":"602"}},{"type":"Feature","geometry":{"type":"Point","coordinates":[106.820498,-6.304989]},"properties":{"title":"Ragunan","marker-color":"#4EC481","koridor":"6Ar","halteId":"601"}},{"type":"Feature","geometry":{"type":"Point","coordinates":[106.882241,-6.309488]},"properties":{"title":"Kampung Rambutan","marker-color":"#E80053","koridor":"7","halteId":"701"}},{"type":"Feature","geometry":{"type":"Point","coordinates":[106.873932,-6.308164]},"properties":{"title":"Tanah Merdeka","marker-color":"#E80053","koridor":"7","halteId":"702"}},{"type":"Feature","geometry":{"type":"Point","coordinates":[106.86561,-6.30655]},"properties":{"title":"Flyover Raya Bogor","marker-color":"#E80053","koridor":"7","halteId":"703"}},{"type":"Feature","geometry":{"type":"Point","coordinates":[106.868079,-6.301931]},"properties":{"title":"RS Harapan Bunda","marker-color":"#E80053","koridor":"7","halteId":"704"}},{"type":"Feature","geometry":{"type":"Point","coordinates":[106.87205,-6.29432]},"properties":{"title":"Pasar Induk Kramat Jati","marker-color":"#E80053","koridor":"7","halteId":"705"}},{"type":"Feature","geometry":{"type":"Point","coordinates":[106.86669,-6.26891]},"properties":{"title":"Pasar Kramat Jati","marker-color":"#E80053","koridor":"7","halteId":"706"}},{"type":"Feature","geometry":{"type":"Point","coordinates":[106.866328,-6.262507]},"properties":{"title":"PGC 1","marker-color":"#E80053","koridor":"7","halteId":"707"}},{"type":"Feature","geometry":{"type":"Point","coordinates":[106.869925,-6.257825]},"properties":{"title":"BKN","marker-color":"#E80053","koridor":"7","halteId":"708"}},{"type":"Feature","geometry":{"type":"Point","coordinates":[106.87359,-6.25035]},"properties":{"title":"UKI","marker-color":"#E80053","koridor":"7","halteId":"709"}},{"type":"Feature","geometry":{"type":"Point","coordinates":[106.871994,-6.245966]},"properties":{"title":"BNN","marker-color":"#E80053","koridor":"7","halteId":"710"}},{"type":"Feature","geometry":{"type":"Point","coordinates":[106.86876,-6.24361]},"properties":{"title":"Cawang Otista","marker-color":"#E80053","koridor":"7","halteId":"711"}},{"type":"Feature","geometry":{"type":"Point","coordinates":[106.86791,-6.2355]},"properties":{"title":"Gelanggang Remaja","marker-color":"#E80053","koridor":"7","halteId":"712"}},{"type":"Feature","geometry":{"type":"Point","coordinates":[106.86714,-6.229717]},"properties":{"title":"Bidara Cina","marker-color":"#E80053","koridor":"7","halteId":"713"}},{"type":"Feature","geometry":{"type":"Point","coordinates":[106.866592,-6.224908]},"properties":{"title":"Kampung Melay","marker-color":"#E80053","koridor":"7","halteId":"714"}},{"type":"Feature","geometry":{"type":"Point","coordinates":[106.866592,-6.224908]},"properties":{"title":"Kampung Melay","marker-color":"#E80053","koridor":"7r","halteId":"714"}},{"type":"Feature","geometry":{"type":"Point","coordinates":[106.86714,-6.229717]},"properties":{"title":"Bidara Cina","marker-color":"#E80053","koridor":"7r","halteId":"713"}},{"type":"Feature","geometry":{"type":"Point","coordinates":[106.86791,-6.2355]},"properties":{"title":"Gelanggang Remaja","marker-color":"#E80053","koridor":"7r","halteId":"712"}},{"type":"Feature","geometry":{"type":"Point","coordinates":[106.86876,-6.24361]},"properties":{"title":"Cawang Otista","marker-color":"#E80053","koridor":"7r","halteId":"711"}},{"type":"Feature","geometry":{"type":"Point","coordinates":[106.871994,-6.245966]},"properties":{"title":"BNN","marker-color":"#E80053","koridor":"7r","halteId":"710"}},{"type":"Feature","geometry":{"type":"Point","coordinates":[106.87359,-6.25035]},"properties":{"title":"UKI","marker-color":"#E80053","koridor":"7r","halteId":"709"}},{"type":"Feature","geometry":{"type":"Point","coordinates":[106.869925,-6.257825]},"properties":{"title":"BKN","marker-color":"#E80053","koridor":"7r","halteId":"708"}},{"type":"Feature","geometry":{"type":"Point","coordinates":[106.866328,-6.262507]},"properties":{"title":"PGC 1","marker-color":"#E80053","koridor":"7r","halteId":"707"}},{"type":"Feature","geometry":{"type":"Point","coordinates":[106.86669,-6.26891]},"properties":{"title":"Pasar Kramat Jati","marker-color":"#E80053","koridor":"7r","halteId":"706"}},{"type":"Feature","geometry":{"type":"Point","coordinates":[106.87205,-6.29432]},"properties":{"title":"Pasar Induk Kramat Jati","marker-color":"#E80053","koridor":"7r","halteId":"705"}},{"type":"Feature","geometry":{"type":"Point","coordinates":[106.868079,-6.301931]},"properties":{"title":"RS Harapan Bunda","marker-color":"#E80053","koridor":"7r","halteId":"704"}},{"type":"Feature","geometry":{"type":"Point","coordinates":[106.86561,-6.30655]},"properties":{"title":"Flyover Raya Bogor","marker-color":"#E80053","koridor":"7r","halteId":"703"}},{"type":"Feature","geometry":{"type":"Point","coordinates":[106.882241,-6.309488]},"properties":{"title":"Kampung Rambutan","marker-color":"#E80053","koridor":"7r","halteId":"701"}},{"type":"Feature","geometry":{"type":"Point","coordinates":[106.866328,-6.262507]},"properties":{"title":"PGC 1","marker-color":"#7FC9BD","koridor":"7A","halteId":"707"}},{"type":"Feature","geometry":{"type":"Point","coordinates":[106.869925,-6.257825]},"properties":{"title":"BKN","marker-color":"#7FC9BD","koridor":"7A","halteId":"708"}},{"type":"Feature","geometry":{"type":"Point","coordinates":[106.871994,-6.245966]},"properties":{"title":"BNN","marker-color":"#7FC9BD","koridor":"7A","halteId":"710"}},{"type":"Feature","geometry":{"type":"Point","coordinates":[106.86876,-6.24361]},"properties":{"title":"Cawang Otista","marker-color":"#7FC9BD","koridor":"7A","halteId":"711"}},{"type":"Feature","geometry":{"type":"Point","coordinates":[106.86791,-6.2355]},"properties":{"title":"Gelanggang Remaja","marker-color":"#7FC9BD","koridor":"7A","halteId":"712"}},{"type":"Feature","geometry":{"type":"Point","coordinates":[106.86714,-6.229717]},"properties":{"title":"Bidara Cina","marker-color":"#7FC9BD","koridor":"7A","halteId":"713"}},{"type":"Feature","geometry":{"type":"Point","coordinates":[106.866592,-6.224908]},"properties":{"title":"Kampung Melay","marker-color":"#7FC9BD","koridor":"7A","halteId":"714"}},{"type":"Feature","geometry":{"type":"Point","coordinates":[106.861284,-6.213178]},"properties":{"title":"Kebon Pala","marker-color":"#7FC9BD","koridor":"7A","halteId":"515"}},{"type":"Feature","geometry":{"type":"Point","coordinates":[106.85924,-6.20856]},"properties":{"title":"Slamet Riyadi","marker-color":"#7FC9BD","koridor":"7A","halteId":"514"}},{"type":"Feature","geometry":{"type":"Point","coordinates":[106.85705,-6.20295]},"properties":{"title":"Tegalan","marker-color":"#7FC9BD","koridor":"7A","halteId":"513"}},{"type":"Feature","geometry":{"type":"Point","coordinates":[106.854472,-6.20006]},"properties":{"title":"Matraman 1","marker-color":"#7FC9BD","koridor":"7A","halteId":"512"}},{"type":"Feature","geometry":{"type":"Point","coordinates":[106.851111,-6.196844]},"properties":{"title":"Salemba Carolus","marker-color":"#7FC9BD","koridor":"7A","halteId":"511"}},{"type":"Feature","geometry":{"type":"Point","coordinates":[106.84903,-6.19364]},"properties":{"title":"Salemba UI","marker-color":"#7FC9BD","koridor":"7A","halteId":"510"}},{"type":"Feature","geometry":{"type":"Point","coordinates":[106.84605,-6.18818]},"properties":{"title":"Kramat Sentiong NU","marker-color":"#7FC9BD","koridor":"7A","halteId":"509"}},{"type":"Feature","geometry":{"type":"Point","coordinates":[106.84388,-6.18442]},"properties":{"title":"Pal Putih","marker-color":"#7FC9BD","koridor":"7A","halteId":"508"}},{"type":"Feature","geometry":{"type":"Point","coordinates":[106.830706,-6.168011]},"properties":{"title":"Juanda","marker-color":"#7FC9BD","koridor":"7A","halteId":"218"}},{"type":"Feature","geometry":{"type":"Point","coordinates":[106.828138,-6.167661]},"properties":{"title":"Pecenongan","marker-color":"#7FC9BD","koridor":"7A","halteId":"219"}},{"type":"Feature","geometry":{"type":"Point","coordinates":[106.82043,-6.16582]},"properties":{"title":"Harmoni","marker-color":"#7FC9BD","koridor":"7A","halteId":"220"}},{"type":"Feature","geometry":{"type":"Point","coordinates":[106.82043,-6.16582]},"properties":{"title":"Harmoni","marker-color":"#7FC9BD","koridor":"7Ar","halteId":"220"}},{"type":"Feature","geometry":{"type":"Point","coordinates":[106.828138,-6.167661]},"properties":{"title":"Pecenongan","marker-color":"#7FC9BD","koridor":"7Ar","halteId":"219"}},{"type":"Feature","geometry":{"type":"Point","coordinates":[106.830706,-6.168011]},"properties":{"title":"Juanda","marker-color":"#7FC9BD","koridor":"7Ar","halteId":"218"}},{"type":"Feature","geometry":{"type":"Point","coordinates":[106.838177,-6.162464]},"properties":{"title":"Pasar Bar","marker-color":"#7FC9BD","koridor":"7Ar","halteId":"316"}},{"type":"Feature","geometry":{"type":"Point","coordinates":[106.84388,-6.18442]},"properties":{"title":"Pal Putih","marker-color":"#7FC9BD","koridor":"7Ar","halteId":"508"}},{"type":"Feature","geometry":{"type":"Point","coordinates":[106.84605,-6.18818]},"properties":{"title":"Kramat Sentiong NU","marker-color":"#7FC9BD","koridor":"7Ar","halteId":"509"}},{"type":"Feature","geometry":{"type":"Point","coordinates":[106.84903,-6.19364]},"properties":{"title":"Salemba UI","marker-color":"#7FC9BD","koridor":"7Ar","halteId":"510"}},{"type":"Feature","geometry":{"type":"Point","coordinates":[106.851111,-6.196844]},"properties":{"title":"Salemba Carolus","marker-color":"#7FC9BD","koridor":"7Ar","halteId":"511"}},{"type":"Feature","geometry":{"type":"Point","coordinates":[106.854472,-6.20006]},"properties":{"title":"Matraman 1","marker-color":"#7FC9BD","koridor":"7Ar","halteId":"512"}},{"type":"Feature","geometry":{"type":"Point","coordinates":[106.85705,-6.20295]},"properties":{"title":"Tegalan","marker-color":"#7FC9BD","koridor":"7Ar","halteId":"513"}},{"type":"Feature","geometry":{"type":"Point","coordinates":[106.85924,-6.20856]},"properties":{"title":"Slamet Riyadi","marker-color":"#7FC9BD","koridor":"7Ar","halteId":"514"}},{"type":"Feature","geometry":{"type":"Point","coordinates":[106.861284,-6.213178]},"properties":{"title":"Kebon Pala","marker-color":"#7FC9BD","koridor":"7Ar","halteId":"515"}},{"type":"Feature","geometry":{"type":"Point","coordinates":[106.86627,-6.21565]},"properties":{"title":"Pasar Jatinegara","marker-color":"#7FC9BD","koridor":"7Ar","halteId":"516"}},{"type":"Feature","geometry":{"type":"Point","coordinates":[106.868004,-6.221811]},"properties":{"title":"Jatinegara RS. Premier","marker-color":"#7FC9BD","koridor":"7Ar","halteId":"517"}},{"type":"Feature","geometry":{"type":"Point","coordinates":[106.86714,-6.229717]},"properties":{"title":"Bidara Cina","marker-color":"#7FC9BD","koridor":"7Ar","halteId":"713"}},{"type":"Feature","geometry":{"type":"Point","coordinates":[106.86791,-6.2355]},"properties":{"title":"Gelanggang Remaja","marker-color":"#7FC9BD","koridor":"7Ar","halteId":"712"}},{"type":"Feature","geometry":{"type":"Point","coordinates":[106.86876,-6.24361]},"properties":{"title":"Cawang Otista","marker-color":"#7FC9BD","koridor":"7Ar","halteId":"711"}},{"type":"Feature","geometry":{"type":"Point","coordinates":[106.871994,-6.245966]},"properties":{"title":"BNN","marker-color":"#7FC9BD","koridor":"7Ar","halteId":"710"}},{"type":"Feature","geometry":{"type":"Point","coordinates":[106.869925,-6.257825]},"properties":{"title":"BKN","marker-color":"#7FC9BD","koridor":"7Ar","halteId":"708"}},{"type":"Feature","geometry":{"type":"Point","coordinates":[106.866328,-6.262507]},"properties":{"title":"PGC 1","marker-color":"#7FC9BD","koridor":"7Ar","halteId":"707"}},{"type":"Feature","geometry":{"type":"Point","coordinates":[106.866328,-6.262507]},"properties":{"title":"PGC 1","marker-color":"#F47C01","koridor":"7B","halteId":"707"}},{"type":"Feature","geometry":{"type":"Point","coordinates":[106.869925,-6.257825]},"properties":{"title":"BKN","marker-color":"#F47C01","koridor":"7B","halteId":"708"}},{"type":"Feature","geometry":{"type":"Point","coordinates":[106.871994,-6.245966]},"properties":{"title":"BNN","marker-color":"#F47C01","koridor":"7B","halteId":"710"}},{"type":"Feature","geometry":{"type":"Point","coordinates":[106.86876,-6.24361]},"properties":{"title":"Cawang Otista","marker-color":"#F47C01","koridor":"7B","halteId":"711"}},{"type":"Feature","geometry":{"type":"Point","coordinates":[106.86791,-6.2355]},"properties":{"title":"Gelanggang Remaja","marker-color":"#F47C01","koridor":"7B","halteId":"712"}},{"type":"Feature","geometry":{"type":"Point","coordinates":[106.86714,-6.229717]},"properties":{"title":"Bidara Cina","marker-color":"#F47C01","koridor":"7B","halteId":"713"}},{"type":"Feature","geometry":{"type":"Point","coordinates":[106.866592,-6.224908]},"properties":{"title":"Kampung Melay","marker-color":"#F47C01","koridor":"7B","halteId":"714"}},{"type":"Feature","geometry":{"type":"Point","coordinates":[106.861284,-6.213178]},"properties":{"title":"Kebon Pala","marker-color":"#F47C01","koridor":"7B","halteId":"515"}},{"type":"Feature","geometry":{"type":"Point","coordinates":[106.85924,-6.20856]},"properties":{"title":"Slamet Riyadi","marker-color":"#F47C01","koridor":"7B","halteId":"514"}},{"type":"Feature","geometry":{"type":"Point","coordinates":[106.85705,-6.20295]},"properties":{"title":"Tegalan","marker-color":"#F47C01","koridor":"7B","halteId":"513"}},{"type":"Feature","geometry":{"type":"Point","coordinates":[106.854472,-6.20006]},"properties":{"title":"Matraman 1","marker-color":"#F47C01","koridor":"7B","halteId":"512"}},{"type":"Feature","geometry":{"type":"Point","coordinates":[106.851111,-6.196844]},"properties":{"title":"Salemba Carolus","marker-color":"#F47C01","koridor":"7B","halteId":"511"}},{"type":"Feature","geometry":{"type":"Point","coordinates":[106.84903,-6.19364]},"properties":{"title":"Salemba UI","marker-color":"#F47C01","koridor":"7B","halteId":"510"}},{"type":"Feature","geometry":{"type":"Point","coordinates":[106.84605,-6.18818]},"properties":{"title":"Kramat Sentiong NU","marker-color":"#F47C01","koridor":"7B","halteId":"509"}},{"type":"Feature","geometry":{"type":"Point","coordinates":[106.84388,-6.18442]},"properties":{"title":"Pal Putih","marker-color":"#F47C01","koridor":"7B","halteId":"508"}},{"type":"Feature","geometry":{"type":"Point","coordinates":[106.839077,-6.165981]},"properties":{"title":"Budi Utomo","marker-color":"#F47C01","koridor":"7B","halteId":"506"}},{"type":"Feature","geometry":{"type":"Point","coordinates":[106.83818,-6.16245]},"properties":{"title":"Pasar Baru Timur","marker-color":"#F47C01","koridor":"7B","halteId":"505"}},{"type":"Feature","geometry":{"type":"Point","coordinates":[106.83429,-6.14678]},"properties":{"title":"Jembatan Merah","marker-color":"#F47C01","koridor":"7B","halteId":"504"}},{"type":"Feature","geometry":{"type":"Point","coordinates":[106.83247,-6.1372]},"properties":{"title":"Gunung. Sahari Mangga Dua","marker-color":"#F47C01","koridor":"7B","halteId":"503"}},{"type":"Feature","geometry":{"type":"Point","coordinates":[106.83163,-6.133655]},"properties":{"title":"Pademangan","marker-color":"#F47C01","koridor":"7B","halteId":"502"}},{"type":"Feature","geometry":{"type":"Point","coordinates":[106.830415,-6.127541]},"properties":{"title":"Ancol","marker-color":"#F47C01","koridor":"7B","halteId":"501"}},{"type":"Feature","geometry":{"type":"Point","coordinates":[106.830415,-6.127541]},"properties":{"title":"Ancol","marker-color":"#F47C01","koridor":"7Br","halteId":"501"}},{"type":"Feature","geometry":{"type":"Point","coordinates":[106.83163,-6.133655]},"properties":{"title":"Pademangan","marker-color":"#F47C01","koridor":"7Br","halteId":"502"}},{"type":"Feature","geometry":{"type":"Point","coordinates":[106.83247,-6.1372]},"properties":{"title":"Gunung. Sahari Mangga Dua","marker-color":"#F47C01","koridor":"7Br","halteId":"503"}},{"type":"Feature","geometry":{"type":"Point","coordinates":[106.83429,-6.14678]},"properties":{"title":"Jembatan Merah","marker-color":"#F47C01","koridor":"7Br","halteId":"504"}},{"type":"Feature","geometry":{"type":"Point","coordinates":[106.83818,-6.16245]},"properties":{"title":"Pasar Baru Timur","marker-color":"#F47C01","koridor":"7Br","halteId":"505"}},{"type":"Feature","geometry":{"type":"Point","coordinates":[106.839077,-6.165981]},"properties":{"title":"Budi Utomo","marker-color":"#F47C01","koridor":"7Br","halteId":"506"}},{"type":"Feature","geometry":{"type":"Point","coordinates":[106.84388,-6.18442]},"properties":{"title":"Pal Putih","marker-color":"#F47C01","koridor":"7Br","halteId":"508"}},{"type":"Feature","geometry":{"type":"Point","coordinates":[106.84605,-6.18818]},"properties":{"title":"Kramat Sentiong NU","marker-color":"#F47C01","koridor":"7Br","halteId":"509"}},{"type":"Feature","geometry":{"type":"Point","coordinates":[106.84903,-6.19364]},"properties":{"title":"Salemba UI","marker-color":"#F47C01","koridor":"7Br","halteId":"510"}},{"type":"Feature","geometry":{"type":"Point","coordinates":[106.851111,-6.196844]},"properties":{"title":"Salemba Carolus","marker-color":"#F47C01","koridor":"7Br","halteId":"511"}},{"type":"Feature","geometry":{"type":"Point","coordinates":[106.854472,-6.20006]},"properties":{"title":"Matraman 1","marker-color":"#F47C01","koridor":"7Br","halteId":"512"}},{"type":"Feature","geometry":{"type":"Point","coordinates":[106.85705,-6.20295]},"properties":{"title":"Tegalan","marker-color":"#F47C01","koridor":"7Br","halteId":"513"}},{"type":"Feature","geometry":{"type":"Point","coordinates":[106.85924,-6.20856]},"properties":{"title":"Slamet Riyadi","marker-color":"#F47C01","koridor":"7Br","halteId":"514"}},{"type":"Feature","geometry":{"type":"Point","coordinates":[106.861284,-6.213178]},"properties":{"title":"Kebon Pala","marker-color":"#F47C01","koridor":"7Br","halteId":"515"}},{"type":"Feature","geometry":{"type":"Point","coordinates":[106.86627,-6.21565]},"properties":{"title":"Pasar Jatinegara","marker-color":"#F47C01","koridor":"7Br","halteId":"516"}},{"type":"Feature","geometry":{"type":"Point","coordinates":[106.868004,-6.221811]},"properties":{"title":"Jatinegara RS. Premier","marker-color":"#F47C01","koridor":"7Br","halteId":"517"}},{"type":"Feature","geometry":{"type":"Point","coordinates":[106.86714,-6.229717]},"properties":{"title":"Bidara Cina","marker-color":"#F47C01","koridor":"7Br","halteId":"713"}},{"type":"Feature","geometry":{"type":"Point","coordinates":[106.86791,-6.2355]},"properties":{"title":"Gelanggang Remaja","marker-color":"#F47C01","koridor":"7Br","halteId":"712"}},{"type":"Feature","geometry":{"type":"Point","coordinates":[106.86876,-6.24361]},"properties":{"title":"Cawang Otista","marker-color":"#F47C01","koridor":"7Br","halteId":"711"}},{"type":"Feature","geometry":{"type":"Point","coordinates":[106.871994,-6.245966]},"properties":{"title":"BNN","marker-color":"#F47C01","koridor":"7Br","halteId":"710"}},{"type":"Feature","geometry":{"type":"Point","coordinates":[106.869925,-6.257825]},"properties":{"title":"BKN","marker-color":"#F47C01","koridor":"7Br","halteId":"708"}},{"type":"Feature","geometry":{"type":"Point","coordinates":[106.866328,-6.262507]},"properties":{"title":"PGC 1","marker-color":"#F47C01","koridor":"7Br","halteId":"707"}},{"type":"Feature","geometry":{"type":"Point","coordinates":[106.7741544,-6.2898862]},"properties":{"title":"Lebak Bulus","marker-color":"#D4008B","koridor":"8","halteId":"801"}},{"type":"Feature","geometry":{"type":"Point","coordinates":[106.772007,-6.28213]},"properties":{"title":"Pondok Pinang","marker-color":"#D4008B","koridor":"8","halteId":"802"}},{"type":"Feature","geometry":{"type":"Point","coordinates":[106.77996,-6.286699]},"properties":{"title":"Pondok Indah 1","marker-color":"#D4008B","koridor":"8","halteId":"803"}},{"type":"Feature","geometry":{"type":"Point","coordinates":[106.783662,-6.267209]},"properties":{"title":"Pondok Indah 2","marker-color":"#D4008B","koridor":"8","halteId":"804"}},{"type":"Feature","geometry":{"type":"Point","coordinates":[106.781657,-6.256958]},"properties":{"title":"Tanah Kusir Kodim","marker-color":"#D4008B","koridor":"8","halteId":"805"}},{"type":"Feature","geometry":{"type":"Point","coordinates":[106.781586,-6.252833]},"properties":{"title":"Kebayoran Lama Bungur","marker-color":"#D4008B","koridor":"8","halteId":"806"}},{"type":"Feature","geometry":{"type":"Point","coordinates":[106.783213,-6.238459]},"properties":{"title":"Pasar Kebayoran Lama","marker-color":"#D4008B","koridor":"8","halteId":"807"}},{"type":"Feature","geometry":{"type":"Point","coordinates":[106.786683,-6.233914]},"properties":{"title":"Simprug","marker-color":"#D4008B","koridor":"8","halteId":"808"}},{"type":"Feature","geometry":{"type":"Point","coordinates":[106.783292,-6.221452]},"properties":{"title":"Permata Hija","marker-color":"#D4008B","koridor":"8","halteId":"809"}},{"type":"Feature","geometry":{"type":"Point","coordinates":[106.7778857,-6.2181015]},"properties":{"title":"Permata Hijau RS Medika","marker-color":"#D4008B","koridor":"8","halteId":"810"}},{"type":"Feature","geometry":{"type":"Point","coordinates":[106.772271,-6.212944]},"properties":{"title":"Pos Pengumben","marker-color":"#D4008B","koridor":"8","halteId":"811"}},{"type":"Feature","geometry":{"type":"Point","coordinates":[106.769554,-6.205552]},"properties":{"title":"Kelapa Dua Sasak","marker-color":"#D4008B","koridor":"8","halteId":"812"}},{"type":"Feature","geometry":{"type":"Point","coordinates":[106.768882,-6.194285]},"properties":{"title":"Kebon Jeruk","marker-color":"#D4008B","koridor":"8","halteId":"813"}},{"type":"Feature","geometry":{"type":"Point","coordinates":[106.768439,-6.185334]},"properties":{"title":"Duri Kepa","marker-color":"#D4008B","koridor":"8","halteId":"814"}},{"type":"Feature","geometry":{"type":"Point","coordinates":[106.765876,-6.174517]},"properties":{"title":"Kedoya Assiddiqiyah","marker-color":"#D4008B","koridor":"8","halteId":"815"}},{"type":"Feature","geometry":{"type":"Point","coordinates":[106.762999,-6.164437]},"properties":{"title":"Kedoya Green Garden","marker-color":"#D4008B","koridor":"8","halteId":"816"}},{"type":"Feature","geometry":{"type":"Point","coordinates":[106.788583,-6.167398]},"properties":{"title":"Grogol 2","marker-color":"#D4008B","koridor":"8","halteId":"817"}},{"type":"Feature","geometry":{"type":"Point","coordinates":[106.792507,-6.176065]},"properties":{"title":"S.Parman Podomoro City","marker-color":"#D4008B","koridor":"8","halteId":"818"}},{"type":"Feature","geometry":{"type":"Point","coordinates":[106.800163,-6.177417]},"properties":{"title":"Tomang Mandala","marker-color":"#D4008B","koridor":"8","halteId":"819"}},{"type":"Feature","geometry":{"type":"Point","coordinates":[106.810115,-6.171147]},"properties":{"title":"RS. Tarakan","marker-color":"#D4008B","koridor":"8","halteId":"820"}},{"type":"Feature","geometry":{"type":"Point","coordinates":[106.816978,-6.169997]},"properties":{"title":"Petojo","marker-color":"#D4008B","koridor":"8","halteId":"821"}},{"type":"Feature","geometry":{"type":"Point","coordinates":[106.82043,-6.16582]},"properties":{"title":"Harmoni","marker-color":"#D4008B","koridor":"8","halteId":"822"}},{"type":"Feature","geometry":{"type":"Point","coordinates":[106.82043,-6.16582]},"properties":{"title":"Harmoni","marker-color":"#D4008B","koridor":"8r","halteId":"822"}},{"type":"Feature","geometry":{"type":"Point","coordinates":[106.816978,-6.169997]},"properties":{"title":"Petojo","marker-color":"#D4008B","koridor":"8r","halteId":"821"}},{"type":"Feature","geometry":{"type":"Point","coordinates":[106.810115,-6.171147]},"properties":{"title":"RS. Tarakan","marker-color":"#D4008B","koridor":"8r","halteId":"820"}},{"type":"Feature","geometry":{"type":"Point","coordinates":[106.800163,-6.177417]},"properties":{"title":"Tomang Mandala","marker-color":"#D4008B","koridor":"8r","halteId":"819"}},{"type":"Feature","geometry":{"type":"Point","coordinates":[106.792507,-6.176065]},"properties":{"title":"S.Parman Podomoro City","marker-color":"#D4008B","koridor":"8r","halteId":"818"}},{"type":"Feature","geometry":{"type":"Point","coordinates":[106.788583,-6.167398]},"properties":{"title":"Grogol 2","marker-color":"#D4008B","koridor":"8r","halteId":"817"}},{"type":"Feature","geometry":{"type":"Point","coordinates":[106.762999,-6.164437]},"properties":{"title":"Kedoya Green Garden","marker-color":"#D4008B","koridor":"8r","halteId":"816"}},{"type":"Feature","geometry":{"type":"Point","coordinates":[106.765876,-6.174517]},"properties":{"title":"Kedoya Assiddiqiyah","marker-color":"#D4008B","koridor":"8r","halteId":"815"}},{"type":"Feature","geometry":{"type":"Point","coordinates":[106.768439,-6.185334]},"properties":{"title":"Duri Kepa","marker-color":"#D4008B","koridor":"8r","halteId":"814"}},{"type":"Feature","geometry":{"type":"Point","coordinates":[106.768882,-6.194285]},"properties":{"title":"Kebon Jeruk","marker-color":"#D4008B","koridor":"8r","halteId":"813"}},{"type":"Feature","geometry":{"type":"Point","coordinates":[106.769554,-6.205552]},"properties":{"title":"Kelapa Dua Sasak","marker-color":"#D4008B","koridor":"8r","halteId":"812"}},{"type":"Feature","geometry":{"type":"Point","coordinates":[106.772271,-6.212944]},"properties":{"title":"Pos Pengumben","marker-color":"#D4008B","koridor":"8r","halteId":"811"}},{"type":"Feature","geometry":{"type":"Point","coordinates":[106.7778857,-6.2181015]},"properties":{"title":"Permata Hijau RS Medika","marker-color":"#D4008B","koridor":"8r","halteId":"810"}},{"type":"Feature","geometry":{"type":"Point","coordinates":[106.783292,-6.221452]},"properties":{"title":"Permata Hija","marker-color":"#D4008B","koridor":"8r","halteId":"809"}},{"type":"Feature","geometry":{"type":"Point","coordinates":[106.786683,-6.233914]},"properties":{"title":"Simprug","marker-color":"#D4008B","koridor":"8r","halteId":"808"}},{"type":"Feature","geometry":{"type":"Point","coordinates":[106.783213,-6.238459]},"properties":{"title":"Pasar Kebayoran Lama","marker-color":"#D4008B","koridor":"8r","halteId":"807"}},{"type":"Feature","geometry":{"type":"Point","coordinates":[106.781586,-6.252833]},"properties":{"title":"Kebayoran Lama Bungur","marker-color":"#D4008B","koridor":"8r","halteId":"806"}},{"type":"Feature","geometry":{"type":"Point","coordinates":[106.781657,-6.256958]},"properties":{"title":"Tanah Kusir Kodim","marker-color":"#D4008B","koridor":"8r","halteId":"805"}},{"type":"Feature","geometry":{"type":"Point","coordinates":[106.783662,-6.267209]},"properties":{"title":"Pondok Indah 2","marker-color":"#D4008B","koridor":"8r","halteId":"804"}},{"type":"Feature","geometry":{"type":"Point","coordinates":[106.77996,-6.286699]},"properties":{"title":"Pondok Indah 1","marker-color":"#D4008B","koridor":"8r","halteId":"803"}},{"type":"Feature","geometry":{"type":"Point","coordinates":[106.7741544,-6.2898862]},"properties":{"title":"Lebak Bulus","marker-color":"#D4008B","koridor":"8r","halteId":"801"}},{"type":"Feature","geometry":{"type":"Point","coordinates":[106.788583,-6.167398]},"properties":{"title":"Grogol 2","marker-color":"#8A0056","koridor":"8A","halteId":"817"}},{"type":"Feature","geometry":{"type":"Point","coordinates":[106.792507,-6.176065]},"properties":{"title":"S.Parman Podomoro City","marker-color":"#8A0056","koridor":"8A","halteId":"818"}},{"type":"Feature","geometry":{"type":"Point","coordinates":[106.800163,-6.177417]},"properties":{"title":"Tomang Mandala","marker-color":"#8A0056","koridor":"8A","halteId":"819"}},{"type":"Feature","geometry":{"type":"Point","coordinates":[106.810115,-6.171147]},"properties":{"title":"RS. Tarakan","marker-color":"#8A0056","koridor":"8A","halteId":"820"}},{"type":"Feature","geometry":{"type":"Point","coordinates":[106.816978,-6.169997]},"properties":{"title":"Petojo","marker-color":"#8A0056","koridor":"8A","halteId":"821"}},{"type":"Feature","geometry":{"type":"Point","coordinates":[106.82043,-6.16582]},"properties":{"title":"Harmoni","marker-color":"#8A0056","koridor":"8A","halteId":"822"}},{"type":"Feature","geometry":{"type":"Point","coordinates":[106.828138,-6.167661]},"properties":{"title":"Pecenongan","marker-color":"#8A0056","koridor":"8A","halteId":"314"}},{"type":"Feature","geometry":{"type":"Point","coordinates":[106.830706,-6.168011]},"properties":{"title":"Juanda","marker-color":"#8A0056","koridor":"8A","halteId":"315"}},{"type":"Feature","geometry":{"type":"Point","coordinates":[106.838177,-6.162464]},"properties":{"title":"Pasar Bar","marker-color":"#8A0056","koridor":"8A","halteId":"316"}},{"type":"Feature","geometry":{"type":"Point","coordinates":[106.838177,-6.162464]},"properties":{"title":"Pasar Bar","marker-color":"#8A0056","koridor":"8Ar","halteId":"316"}},{"type":"Feature","geometry":{"type":"Point","coordinates":[106.830706,-6.168011]},"properties":{"title":"Juanda","marker-color":"#8A0056","koridor":"8Ar","halteId":"315"}},{"type":"Feature","geometry":{"type":"Point","coordinates":[106.828138,-6.167661]},"properties":{"title":"Pecenongan","marker-color":"#8A0056","koridor":"8Ar","halteId":"314"}},{"type":"Feature","geometry":{"type":"Point","coordinates":[106.82043,-6.16582]},"properties":{"title":"Harmoni","marker-color":"#8A0056","koridor":"8Ar","halteId":"822"}},{"type":"Feature","geometry":{"type":"Point","coordinates":[106.816978,-6.169997]},"properties":{"title":"Petojo","marker-color":"#8A0056","koridor":"8Ar","halteId":"821"}},{"type":"Feature","geometry":{"type":"Point","coordinates":[106.810115,-6.171147]},"properties":{"title":"RS. Tarakan","marker-color":"#8A0056","koridor":"8Ar","halteId":"820"}},{"type":"Feature","geometry":{"type":"Point","coordinates":[106.800163,-6.177417]},"properties":{"title":"Tomang Mandala","marker-color":"#8A0056","koridor":"8Ar","halteId":"819"}},{"type":"Feature","geometry":{"type":"Point","coordinates":[106.792507,-6.176065]},"properties":{"title":"S.Parman Podomoro City","marker-color":"#8A0056","koridor":"8Ar","halteId":"818"}},{"type":"Feature","geometry":{"type":"Point","coordinates":[106.788583,-6.167398]},"properties":{"title":"Grogol 2","marker-color":"#8A0056","koridor":"8Ar","halteId":"817"}},{"type":"Feature","geometry":{"type":"Point","coordinates":[106.8863393,-6.2911852]},"properties":{"title":"Pinang Ranti","marker-color":"#0E9188","koridor":"9","halteId":"901"}},{"type":"Feature","geometry":{"type":"Point","coordinates":[106.881119,-6.290129]},"properties":{"title":"Garuda Taman Mini","marker-color":"#0E9188","koridor":"9","halteId":"902"}},{"type":"Feature","geometry":{"type":"Point","coordinates":[106.87359,-6.25035]},"properties":{"title":"Cawang UKI","marker-color":"#0E9188","koridor":"9","halteId":"903"}},{"type":"Feature","geometry":{"type":"Point","coordinates":[106.871994,-6.245966]},"properties":{"title":"Cawang BNN","marker-color":"#0E9188","koridor":"9","halteId":"904"}},{"type":"Feature","geometry":{"type":"Point","coordinates":[106.86305,-6.243132]},"properties":{"title":"Cawang Ciliwung","marker-color":"#0E9188","koridor":"9","halteId":"906"}},{"type":"Feature","geometry":{"type":"Point","coordinates":[106.857662,-6.243357]},"properties":{"title":"Cikoko Stasiun Cawang","marker-color":"#0E9188","koridor":"9","halteId":"907"}},{"type":"Feature","geometry":{"type":"Point","coordinates":[106.851643,-6.243204]},"properties":{"title":"Tebet BKPM","marker-color":"#0E9188","koridor":"9","halteId":"908"}},{"type":"Feature","geometry":{"type":"Point","coordinates":[106.843864,-6.243093]},"properties":{"title":"Pancoran Tug","marker-color":"#0E9188","koridor":"9","halteId":"909"}},{"type":"Feature","geometry":{"type":"Point","coordinates":[106.837717,-6.241312]},"properties":{"title":"Pancoran Barat","marker-color":"#0E9188","koridor":"9","halteId":"910"}},{"type":"Feature","geometry":{"type":"Point","coordinates":[106.830575,-6.238897]},"properties":{"title":"Tegal Parang","marker-color":"#0E9188","koridor":"9","halteId":"911"}},{"type":"Feature","geometry":{"type":"Point","coordinates":[106.827225,-6.236804]},"properties":{"title":"Kuningan Barat","marker-color":"#0E9188","koridor":"9","halteId":"912"}},{"type":"Feature","geometry":{"type":"Point","coordinates":[106.8228759,-6.233154]},"properties":{"title":"Gatot Subroto Jamsostek","marker-color":"#0E9188","koridor":"9","halteId":"913"}},{"type":"Feature","geometry":{"type":"Point","coordinates":[106.816626,-6.227255]},